timestamp,x,y,z,vx,vy,vz,roll,pitch,yaw,flight_mode,armed_status,proposed_x,proposed_y,proposed_z,approved_x,approved_y,approved_z,ai_confidence,safety_status,rejection_reason,failsafe_active
1784829388.0380352,-0.01256670244038105,-0.023487849161028862,-0.011692613363265991,-0.011382041499018669,-0.0139270955696702,-0.0017663963371887803,0.0003697280682607738,0.0004901535772475517,1.675502865565049,MANUAL,False,0.0,0.0,5.0,0.0,0.0,5.0,0.949999988079071,APPROVED,OK,False
1784829388.1380699,-0.014532613568007946,-0.025777773931622505,-0.011152997612953186,-0.012760422192513943,-0.01504326518625021,-0.0018160596955567598,0.00037818063586202594,0.0005007901554702237,1.6754687094374439,MANUAL,False,0.0,0.0,5.0,0.0,0.0,5.0,0.949999988079071,APPROVED,OK,False
1784829388.2380497,-0.016699381172657013,-0.027997219935059547,-0.01028423011302948,-0.01410204079002142,-0.01599748805165291,-0.0016748419729992747,0.00042748662547767023,0.00048490531198139655,1.6754628129670015,4,False,0.0,0.0,5.0,0.0,0.0,5.0,0.949999988079071,APPROVED,OK,False
1784829388.3380406,-0.018390348181128502,-0.029260937124490738,-0.009365618228912354,-0.015251321718096733,-0.01630011945962906,-0.0015008801128715277,0.0004503654386840078,0.0004717348085589231,1.6754471201040932,4,False,0.0,0.0,5.0,0.0,0.0,5.0,0.949999988079071,APPROVED,OK,False
1784829388.4379847,-0.020260414108633995,-0.029809661209583282,-0.008410215377807617,-0.01632693037390709,-0.016020392999053,-0.0014573115622624755,0.0004684548085835176,0.0004557797668445055,1.6754159652603853,4,False,0.0,0.0,5.0,0.0,0.0,5.0,0.949999988079071,APPROVED,OK,False
1784829388.5380719,-0.02174278348684311,-0.030330175533890724,-0.0074089765548706055,-0.017103461548686028,-0.01580372452735901,-0.0014542806893587112,0.0004885016436067538,0.00043478298090251794,1.6753780778304872,4,False,0.0,0.0,5.0,0.0,0.0,5.0,0.949999988079071,APPROVED,OK,False
1784829388.6380439,-0.023209799081087112,-0.0312031339854002,-0.006662741303443909,-0.01800583116710186,-0.01591034047305584,-0.0015635237796232104,0.0005113811539943935,0.00040038804196436975,1.6753555400459965,4,False,0.0,0.0,5.0,0.0,0.0,5.0,0.949999988079071,APPROVED,OK,False
1784829388.7380362,-0.02445073612034321,-0.032503798604011536,-0.006080612540245056,-0.018935255706310272,-0.016267972066998482,-0.0017543327994644642,0.0005377163942985494,0.00039545642660686054,1.6753333828166947,4,False,0.0,0.0,5.0,0.0,0.0,5.0,0.949999988079071,APPROVED,OK,False
1784829388.838009,-0.025789564475417137,-0.03412618488073349,-0.005342736840248108,-0.019908582791686058,-0.01663018763065338,-0.0020200686994940042,0.0005308120347163055,0.0004032227552796854,1.675302695976221,4,False,0.0,0.0,5.0,0.0,0.0,5.0,0.949999988079071,APPROVED,OK,False
1784829388.9380744,-0.027491673827171326,-0.035324402153491974,-0.004779979586601257,-0.021220354363322258,-0.01662546768784523,-0.0021434989757835865,0.0005545698976379514,0.00039056459619823757,1.6752818304529313,4,False,0.0,0.0,5.0,0.0,0.0,5.0,0.949999988079071,APPROVED,OK,False
1784829389.0380301,-0.029107097536325455,-0.035961952060461044,-0.004610955715179443,-0.022320831194519997,-0.016310550272464752,-0.002721983939409256,0.000562497780471296,0.00037370483329495364,1.6752223785918419,4,False,0.0,0.0,5.0,0.0,0.0,5.0,0.949999988079071,APPROVED,OK,False
1784829389.1380396,-0.030203280970454216,-0.036027707159519196,-0.004836380481719971,-0.023074248805642128,-0.015656432136893272,-0.002965484280139208,0.0005411144991564415,0.0003536020013616589,1.6751728666145413,OFFBOARD,False,0.0,0.0,5.0,0.0,0.0,5.0,0.949999988079071,APPROVED,OK,False
1784829389.238025,-0.031284019351005554,-0.03533345088362694,-0.00538887083530426,-0.02351495623588562,-0.014611780643463135,-0.0032401590142399073,0.0005579544982567462,0.00032957184026593026,1.6751202596421162,OFFBOARD,False,0.0,0.0,5.0,0.0,0.0,5.0,0.949999988079071,APPROVED,OK,False
1784829389.3380394,-0.03217815235257149,-0.03421243652701378,-0.006044045090675354,-0.023682594299316406,-0.013412976637482643,-0.003708956763148308,0.000536717809934814,0.0002793379571760664,1.6750479727755474,OFFBOARD,True,0.0,0.0,5.0,0.0,0.0,5.0,0.949999988079071,APPROVED,OK,False
1784829389.438045,-0.03301839902997017,-0.03284304589033127,-0.005963534116744995,-0.023894600570201874,-0.012095760554075241,-0.003760224673897028,0.0005617245746899476,0.0002105645996478609,1.6750013559199073,OFFBOARD,True,0.0,0.0,5.0,0.0,0.0,5.0,0.949999988079071,APPROVED,OK,False
1784829389.538068,-0.033729154616594315,-0.03159141167998314,-0.0056535303592681885,-0.023963112384080887,-0.010782280005514622,-0.0036164289340376854,0.000525549681811992,0.00017331690556061447,1.67496323760785,OFFBOARD,True,0.0,0.0,5.0,0.0,0.0,5.0,0.949999988079071,APPROVED,OK,False
1784829389.6380563,-0.03391529247164726,-0.030523620545864105,-0.005473509430885315,-0.023325277492403984,-0.009566029533743858,-0.0034844176843762398,0.0004868478186109451,0.00014908505600690368,1.6749587887970374,OFFBOARD,True,0.0,0.0,5.0,0.0,0.0,5.0,0.949999988079071,APPROVED,OK,False
1784829389.7381241,-0.03305619955062866,-0.02963034063577652,-0.005797132849693298,-0.022103821858763695,-0.00871257297694683,-0.0034266836009919643,0.0004148333357164254,0.00011843073325908156,1.6749772458378587,OFFBOARD,True,0.0,0.0,5.0,0.0,0.0,5.0,0.949999988079071,APPROVED,OK,False
1784829389.838043,-0.031463753432035446,-0.028919290751218796,-0.006679803133010864,-0.019982067868113518,-0.007833265699446201,-0.0035082283429801464,0.00035277422923984643,0.00012098289182586477,1.6750092616525705,OFFBOARD,True,0.0,0.0,5.0,0.0,0.0,5.0,0.949999988079071,APPROVED,OK,False
1784829389.937998,-0.029861589893698692,-0.028316115960478783,-0.0076806992292404175,-0.018258672207593918,-0.007403572555631399,-0.004006948322057724,0.0003075721119722069,0.00016308850972101145,1.6750591168968054,OFFBOARD,True,0.0,0.0,5.0,0.0,0.0,5.0,0.949999988079071,APPROVED,OK,False
1784829390.038024,-0.02761141024529934,-0.027732519432902336,-0.008467450737953186,-0.01620287448167801,-0.007073686458170414,-0.00425416324287653,0.0002464787782311711,0.00016775381015131542,1.6750960495937617,OFFBOARD,True,0.0,0.0,5.0,0.0,0.0,5.0,0.949999988079071,APPROVED,OK,False
1784829390.1380265,-0.02538309246301651,-0.027205288410186768,-0.00912579894065857,-0.014256945811212063,-0.006724936421960592,-0.004794216714799404,0.00016420650206533304,0.00017071116682169585,1.67510646993478,OFFBOARD,True,0.0,0.0,5.0,0.0,0.0,5.0,0.949999988079071,APPROVED,OK,False
1784829390.2380247,-0.02348969504237175,-0.02637414075434208,-0.009637102484703064,-0.012860297225415707,-0.006353940349072218,-0.004914382006973028,0.00012851491848966574,0.00016938211128084314,1.6751203719963652,OFFBOARD,True,0.0,0.0,5.0,0.0,0.0,5.0,0.949999988079071,APPROVED,OK,False
1784829390.338028,-0.022536683827638626,-0.025284983217716217,-0.009627491235733032,-0.011985368095338345,-0.005902431905269623,-0.0048065404407680035,0.00013602297902035228,0.0001480650977053746,1.6751067070574537,OFFBOARD,True,0.0,0.0,5.0,0.0,0.0,5.0,0.949999988079071,APPROVED,OK,False
1784829390.438019,-0.02280367538332939,-0.024390550330281258,-0.009358704090118408,-0.01237327791750431,-0.005559372715651989,-0.004777769558131695,0.000158138382676582,0.000132765621336921,1.6750883747827021,OFFBOARD,True,0.0,0.0,5.0,0.0,0.0,5.0,0.949999988079071,APPROVED,OK,False
1784829390.5380142,-0.023913079872727394,-0.02385147474706173,-0.009149566292762756,-0.01340023335069418,-0.005361911375075579,-0.004749129060655832,0.00024022298263168428,0.0001408198154528953,1.675091001752047,OFFBOARD,True,0.0,0.0,5.0,0.0,0.0,5.0,0.949999988079071,APPROVED,OK,False
1784829390.638035,-0.0253848135471344,-0.02284279838204384,-0.00878240168094635,-0.014550899155437946,-0.005102039314806461,-0.004525131545960903,0.0002805194037989806,0.00015444072839731883,1.6750880066879705,OFFBOARD,True,0.0,0.0,5.0,0.0,0.0,5.0,0.949999988079071,APPROVED,OK,False
1784829390.7380505,-0.02662697434425354,-0.02175486646592617,-0.008261322975158691,-0.015452603809535503,-0.0045311846770346165,-0.004478739574551582,0.00027546406853800855,0.00012405708580433866,1.67509363492623,OFFBOARD,True,0.0,0.0,5.0,0.0,0.0,5.0,0.949999988079071,APPROVED,OK,False
1784829390.838035,-0.02781662531197071,-0.020492922514677048,-0.00745818018913269,-0.016247577965259552,-0.003832785878330469,-0.0040975818410515785,0.00028188352940975895,7.180394465453101e-05,1.6751071937150512,OFFBOARD,True,0.0,0.0,5.0,0.0,0.0,5.0,0.949999988079071,APPROVED,OK,False
1784829390.9380476,-0.028942683711647987,-0.01920262537896633,-0.006494432687759399,-0.017251569777727127,-0.002940061269327998,-0.003936199937015772,0.0003074926876216681,3.223202657512626e-05,1.67512037820329,OFFBOARD,True,0.0,0.0,5.0,0.0,0.0,5.0,0.949999988079071,APPROVED,OK,False
1784829391.0380216,-0.029498642310500145,-0.017238231375813484,-0.005802378058433533,-0.017435869202017784,-0.0016048052348196507,-0.003592369845137,0.0003143456208061247,-1.0304036550406163e-05,1.6751213204855928,OFFBOARD,True,0.0,0.0,5.0,0.0,0.0,5.0,0.949999988079071,APPROVED,OK,False
1784829391.1380286,-0.029563581570982933,-0.014766864478588104,-0.005105465650558472,-0.01734490692615509,0.00012412680371198803,-0.00312879029661417,0.00027598587110569953,-7.087087584771388e-05,1.6751230113766826,OFFBOARD,True,0.0,0.0,5.0,0.0,0.0,5.0,0.949999988079071,APPROVED,OK,False
1784829391.2380698,-0.029974961653351784,-0.01204887218773365,-0.004248678684234619,-0.01764223910868168,0.0019398224540054798,-0.002671860158443451,0.0002743764002035567,-0.0001325333291120869,1.6750998807937865,OFFBOARD,True,0.0,0.0,5.0,0.0,0.0,5.0,0.949999988079071,APPROVED,OK,False
1784829391.338027,-0.03083920292556286,-0.009537805803120136,-0.003477230668067932,-0.018186282366514206,0.0031025270000100136,-0.0024484239984303713,0.0002764785407394437,-0.00019065274797860562,1.675120003899051,OFFBOARD,True,0.0,0.0,5.0,0.0,0.0,5.0,0.949999988079071,APPROVED,OK,False
1784829391.4380305,-0.031648699194192886,-0.00709646288305521,-0.002733975648880005,-0.018632076680660248,0.004226645454764366,-0.0021795218344777822,0.0002794040577253267,-0.00020513977650077312,1.6751348916935243,OFFBOARD,True,0.0,0.0,5.0,0.0,0.0,5.0,0.949999988079071,APPROVED,OK,False
1784829391.5380194,-0.032574187964200974,-0.005215018056333065,-0.0019055008888244629,-0.01908279024064541,0.004955869168043137,-0.002041898900642991,0.0003331147966341401,-0.0002498921847833195,1.6751480575572724,OFFBOARD,True,0.0,0.0,5.0,0.0,0.0,5.0,0.949999988079071,APPROVED,OK,False
1784829391.638036,-0.03373819589614868,-0.003211192786693573,-0.0007907748222351074,-0.019862936809659004,0.005804405082017183,-0.0018347487784922123,0.00038046590423943184,-0.00022995434322028703,1.6751830560384955,OFFBOARD,True,0.0,0.0,5.0,0.0,0.0,5.0,0.949999988079071,APPROVED,OK,False
1784829391.7380507,-0.0347115732729435,-0.0013159242225810885,0.00025475025177001953,-0.02006809040904045,0.006444597616791725,-0.0016369380755349994,0.00040400685682994813,-0.00024664655461458705,1.6751885595006955,OFFBOARD,True,0.0,0.0,5.0,0.0,0.0,5.0,0.949999988079071,APPROVED,OK,False
1784829391.8380237,-0.03494628518819809,0.0008194211404770613,0.001392275094985962,-0.019763842225074768,0.007609799038618803,-0.001651668455451727,0.00036836325122100675,-0.0002394055650388491,1.6752030792066777,OFFBOARD,True,0.0,0.0,5.0,0.0,0.0,5.0,0.949999988079071,APPROVED,OK,False
1784829391.9380322,-0.034374140202999115,0.002523093018680811,0.0018664151430130005,-0.01914527453482151,0.008229149505496025,-0.0017848082352429628,0.0003252759422173944,-0.00023664688563128207,1.6752037967793416,OFFBOARD,True,0.0,0.0,5.0,0.0,0.0,5.0,0.949999988079071,APPROVED,OK,False
1784829392.038149,-0.03284831717610359,0.004752994515001774,0.002020806074142456,-0.01754305325448513,0.00910989660769701,-0.0020828237757086754,0.0002742386517761594,-0.0002391064649646845,1.675168673526422,OFFBOARD,True,0.0,0.0,5.0,0.0,0.0,5.0,0.949999988079071,APPROVED,OK,False
1784829392.1380744,-0.030415549874305725,0.007450620178133249,0.0013832151889801025,-0.015272915363311768,0.01033137459307909,-0.002608300419524312,0.00020579486799090306,-0.00027612393374328053,1.6751162974682496,OFFBOARD,True,0.0,0.0,5.0,0.0,0.0,5.0,0.949999988079071,APPROVED,OK,False
1784829392.2380755,-0.02755707874894142,0.010188748128712177,0.0005367398262023926,-0.01430582907050848,0.012597532942891121,-0.003032806096598506,0.00012506737355527498,-0.0002937638534109461,1.6749269225333654,OFFBOARD,True,0.0,0.0,5.0,0.0,0.0,5.0,0.949999988079071,APPROVED,OK,False
1784829392.3380535,-0.025590751320123672,0.013100932352244854,9.046494960784912e-05,-0.011233771219849586,0.031291283667087555,0.005356726702302694,-0.002980580860347088,-0.0002968492961313525,1.6645867395417848,OFFBOARD,True,0.0,0.0,5.0,0.0,0.0,5.0,0.949999988079071,APPROVED,OK,False
1784829392.4380198,-0.023657310754060745,0.016973847523331642,0.003164246678352356,0.001058725407347083,0.03473276644945145,0.0669272392988205,-0.019754923624648858,0.0008615917660853485,1.621705799581669,OFFBOARD,True,0.0,0.0,5.0,0.0,0.0,5.0,0.949999988079071,APPROVED,OK,False
1784829392.5380561,-0.020004969090223312,0.020007630810141563,0.016332700848579407,0.03217712417244911,0.032086487859487534,0.19048424065113068,-0.03560119144232097,0.004702889932434215,1.5390077572612457,OFFBOARD,True,0.0,0.0,5.0,0.0,0.0,5.0,0.949999988079071,APPROVED,OK,False
1784829392.6380394,-0.011859773658216,0.02128748968243599,0.049065738916397095,0.07860725373029709,0.019181642681360245,0.3790878653526306,-0.039078813772061766,0.007910353671624211,1.4216999996904038,OFFBOARD,True,0.0,0.0,5.0,0.0,0.0,5.0,0.949999988079071,APPROVED,OK,False
1784829392.7379894,0.00026294239796698093,0.0196074265986681,0.10072627663612366,0.11837290227413177,-0.0017241250025108457,0.5881668925285339,-0.03229838333156959,0.00955948543998199,1.2734014587634852,OFFBOARD,True,0.0,0.0,5.0,0.0,0.0,5.0,0.949999988079071,APPROVED,OK,False
1784829392.838029,0.0174847599118948,0.014840230345726013,0.1829448938369751,0.146527498960495,-0.028452422469854355,0.8375527262687683,-0.02068233948758768,0.010473447475826552,1.0969260400020566,OFFBOARD,True,0.0,0.0,5.0,0.0,0.0,5.0,0.949999988079071,APPROVED,OK,False
1784829392.9380891,0.035511504858732224,0.007557081524282694,0.2848365008831024,0.15561440587043762,-0.051348213106393814,1.0786635875701904,-0.008826165488907568,0.01198587580098127,0.8948656308052262,OFFBOARD,True,0.0,0.0,5.0,0.0,0.0,5.0,0.949999988079071,APPROVED,OK,False
1784829393.0380263,0.05473319813609123,-0.0028715685475617647,0.42533326148986816,0.14737045764923096,-0.07006955146789551,1.420686960220337,0.0014313976127216682,0.014968732561859637,0.6716982122002686,OFFBOARD,True,0.0,0.0,5.0,0.0,0.0,5.0,0.949999988079071,APPROVED,OK,False
1784829393.1380107,0.06989950686693192,-0.013707705773413181,0.5995078086853027,0.12081311643123627,-0.07633266597986221,1.9146798849105835,0.0145735946736761,0.019669603410135877,0.44653723788282335,OFFBOARD,True,0.0,0.0,5.0,0.0,0.0,5.0,0.949999988079071,APPROVED,OK,False
1784829393.238007,0.08131279051303864,-0.0243569016456604,0.8407310843467712,0.07952363789081573,-0.060469526797533035,2.311467170715332,0.028557380365646545,0.02500236118920503,0.24168728489710994,OFFBOARD,True,0.0,0.0,5.0,0.0,0.0,5.0,0.949999988079071,APPROVED,OK,False
1784829393.3380542,0.0864768996834755,-0.030507424846291542,1.0951273441314697,0.03905775770545006,-0.02686193399131298,2.5340447425842285,0.038776222164668986,0.02923501223577614,0.07283715480171041,OFFBOARD,True,0.0,0.0,5.0,0.0,0.0,5.0,0.949999988079071,APPROVED,OK,False
1784829393.4380155,0.08631505817174911,-0.03126261755824089,1.3891215324401855,-0.0011033612536266446,0.022332651540637016,2.6826486587524414,0.04273351047364542,0.030468677745235474,-0.05284328194452867,OFFBOARD,True,0.0,0.0,5.0,0.0,0.0,5.0,0.949999988079071,APPROVED,OK,False
1784829393.5380244,0.08166886121034622,-0.025595394894480705,1.6689465045928955,-0.03203413635492325,0.07093341648578644,2.7646796703338623,0.04013304529125386,0.027693098924715925,-0.13386221124922484,OFFBOARD,True,0.0,0.0,5.0,0.0,0.0,5.0,0.949999988079071,APPROVED,OK,False
1784829393.6380408,0.07296192646026611,-0.013300534337759018,1.9745521545410156,-0.057856883853673935,0.1174209713935852,2.8081417083740234,0.03159135939680674,0.021389779903220177,-0.17299725327044452,OFFBOARD,True,0.0,0.0,5.0,0.0,0.0,5.0,0.949999988079071,APPROVED,OK,False
1784829393.7380183,0.06270916759967804,0.0026227219495922327,2.2550606727600098,-0.07488079369068146,0.147744819521904,2.7965869903564453,0.018612684279642258,0.013247981757310848,-0.17618334759243615,OFFBOARD,True,0.0,0.0,5.0,0.0,0.0,5.0,0.949999988079071,APPROVED,OK,False
1784829393.8379858,0.05077696219086647,0.02231956459581852,2.5473215579986572,-0.085446797311306,0.16252730786800385,2.650949478149414,0.003053197541559666,0.0053604143336908145,-0.15287531519762065,OFFBOARD,True,0.0,0.0,5.0,0.0,0.0,5.0,0.949999988079071,APPROVED,OK,False
1784829393.9379869,0.040506452322006226,0.04023522511124611,2.7953944206237793,-0.08951135724782944,0.1611260026693344,2.4381778240203857,-0.012755779682073124,-0.0005081527852283871,-0.11230116000941677,OFFBOARD,True,0.0,0.0,5.0,0.0,0.0,5.0,0.949999988079071,APPROVED,OK,False
1784829394.0381513,0.030880704522132874,0.05729187652468681,3.034346342086792,-0.08929812163114548,0.14561554789543152,2.176013469696045,-0.0269378206415702,-0.003699492021434219,-0.062413467142352984,OFFBOARD,True,0.0,0.0,5.0,0.0,0.0,5.0,0.949999988079071,APPROVED,OK,False
1784829394.138079,0.02365594543516636,0.06983333826065063,3.2266902923583984,-0.08597777038812637,0.12029867619276047,1.934159278869629,-0.0380393654968272,-0.0044869726209141045,-0.009233132613504271,OFFBOARD,True,0.0,0.0,5.0,0.0,0.0,5.0,0.949999988079071,APPROVED,OK,False
1784829394.237996,0.017622292041778564,0.07883497327566147,3.4063057899475098,-0.07966100424528122,0.08345098793506622,1.6905802488327026,-0.04517175822888234,-0.0037076721165388887,0.042213208458386595,OFFBOARD,True,0.0,0.0,5.0,0.0,0.0,5.0,0.949999988079071,APPROVED,OK,False
1784829394.3379993,0.013683570548892021,0.0823630765080452,3.548783779144287,-0.07155080884695053,0.043707720935344696,1.490625262260437,-0.048130883300671494,-0.0022885905533339915,0.08738502965049626,OFFBOARD,True,0.0,0.0,5.0,0.0,0.0,5.0,0.949999988079071,APPROVED,OK,False
1784829394.4379852,0.010644720867276192,0.08088088035583496,3.6816086769104004,-0.06171471253037453,-0.0017742561176419258,1.3028128147125244,-0.04692683465210794,-0.0010235025006100934,0.12297919185316354,OFFBOARD,True,0.0,0.0,5.0,0.0,0.0,5.0,0.949999988079071,APPROVED,OK,False
1784829394.5380476,0.00900386180728674,0.07459500432014465,3.7872278690338135,-0.05249495804309845,-0.042738743126392365,1.153961420059204,-0.042098799570902797,-0.0003133786427858557,0.1471122094465002,OFFBOARD,True,0.0,0.0,5.0,0.0,0.0,5.0,0.949999988079071,APPROVED,OK,False
1784829394.6380005,0.008297878317534924,0.06304443627595901,3.8869640827178955,-0.042603425681591034,-0.08199723064899445,1.0161077976226807,-0.034480710710930666,-0.0002474933887952335,0.15936371135236882,OFFBOARD,True,0.0,0.0,5.0,0.0,0.0,5.0,0.949999988079071,APPROVED,OK,False
1784829394.738,0.008310058154165745,0.04891642555594444,3.967900037765503,-0.03488143905997276,-0.1116504818201065,0.907213032245636,-0.02490011252660915,-0.0005505502036431897,0.16018724063958947,OFFBOARD,True,0.0,0.0,5.0,0.0,0.0,5.0,0.949999988079071,APPROVED,OK,False
1784829394.838011,0.00844421423971653,0.030830882489681244,4.045862197875977,-0.028488684445619583,-0.1345282644033432,0.8064265847206116,-0.014386513328491463,-0.0009686597973603105,0.1511162900830675,OFFBOARD,True,0.0,0.0,5.0,0.0,0.0,5.0,0.949999988079071,APPROVED,OK,False
1784829394.9380112,0.008591181598603725,0.01273852214217186,4.109915256500244,-0.024397214874625206,-0.14592763781547546,0.7262637615203857,-0.003851103894861121,-0.0012800345433227006,0.1349978417490894,OFFBOARD,True,0.0,0.0,5.0,0.0,0.0,5.0,0.949999988079071,APPROVED,OK,False
1784829395.0380104,0.008355713449418545,-0.006767793092876673,4.172475337982178,-0.021975314244627953,-0.14750808477401733,0.6516381502151489,0.005809881593278424,-0.001402441406279218,0.11443170525338485,OFFBOARD,True,0.0,0.0,5.0,0.0,0.0,5.0,0.949999988079071,APPROVED,OK,False
1784829395.1380155,0.007388829253613949,-0.023159246891736984,4.2246479988098145,-0.021514417603611946,-0.1397562474012375,0.592149019241333,0.013926189336710247,-0.0012875144667444862,0.09186742322611681,OFFBOARD,True,0.0,0.0,5.0,0.0,0.0,5.0,0.949999988079071,APPROVED,OK,False
1784829395.2380776,0.0060005406849086285,-0.03782195225358009,4.27571964263916,-0.02214176021516323,-0.12250249832868576,0.535990297794342,0.01997613921023243,-0.0011020721770267613,0.0692237270476564,OFFBOARD,True,0.0,0.0,5.0,0.0,0.0,5.0,0.949999988079071,APPROVED,OK,False
1784829395.3380554,0.004549525678157806,-0.048357922583818436,4.318580150604248,-0.022658804431557655,-0.10132938623428345,0.4912286400794983,0.023637242582839342,-0.0010179104877131332,0.04830491230930326,OFFBOARD,True,0.0,0.0,5.0,0.0,0.0,5.0,0.949999988079071,APPROVED,OK,False
1784829395.4380393,0.003085019066929817,-0.056606046855449677,4.361335277557373,-0.022459981963038445,-0.07532345503568649,0.4485790729522705,0.024972963149312903,-0.0010230178633716055,0.03055830532540626,OFFBOARD,True,0.0,0.0,5.0,0.0,0.0,5.0,0.949999988079071,APPROVED,OK,False
1784829395.538007,0.0021227700635790825,-0.061114903539419174,4.397614479064941,-0.021071242168545723,-0.050764914602041245,0.4137508273124695,0.024295923550737952,-0.0010667106529831322,0.016938851847772073,OFFBOARD,True,0.0,0.0,5.0,0.0,0.0,5.0,0.949999988079071,APPROVED,OK,False
1784829395.6383488,0.0012437243713065982,-0.06261669099330902,4.433635711669922,-0.019016481935977936,-0.025311261415481567,0.3801786005496979,0.02215623802964223,-0.0010599420295149423,0.00782177181585522,OFFBOARD,True,0.0,0.0,5.0,0.0,0.0,5.0,0.949999988079071,APPROVED,OK,False
1784829395.7380059,0.0003302063560113311,-0.06140604987740517,4.464278221130371,-0.017451751977205276,-0.004602897446602583,0.3526447117328644,0.018910918480680803,-0.0009939630289891872,0.0030544866412484167,OFFBOARD,True,0.0,0.0,5.0,0.0,0.0,5.0,0.949999988079071,APPROVED,OK,False
1784829395.8380075,-0.001158345490694046,-0.05784846842288971,4.494946002960205,-0.016044428572058678,0.014137127436697483,0.3263658583164215,0.01507596147160361,-0.0009570739645383609,0.0019238806593621437,OFFBOARD,True,0.0,0.0,5.0,0.0,0.0,5.0,0.949999988079071,APPROVED,OK,False
1784829395.9382246,-0.0029010046273469925,-0.052389588207006454,4.52150297164917,-0.015479501336812973,0.028149455785751343,0.3046673536300659,0.01096352649807349,-0.0010020908015610658,0.0038323185692036733,OFFBOARD,True,0.0,0.0,5.0,0.0,0.0,5.0,0.949999988079071,APPROVED,OK,False
1784829396.0381029,-0.005898273084312677,-0.04501420632004738,4.548870086669922,-0.015841154381632805,0.03940562903881073,0.2835555076599121,0.00689033770692808,-0.0011540139327115035,0.007858640844824804,OFFBOARD,True,0.0,0.0,5.0,0.0,0.0,5.0,0.949999988079071,APPROVED,OK,False
1784829396.1379697,-0.00929359719157219,-0.03775911033153534,4.5730085372924805,-0.01652688905596733,0.04568653553724289,0.26600316166877747,0.0030366332596785187,-0.0014755681156600608,0.013290969302226242,OFFBOARD,True,0.0,0.0,5.0,0.0,0.0,5.0,0.949999988079071,APPROVED,OK,False
1784829396.2380078,-0.012661530636250973,-0.029399219900369644,4.597555160522461,-0.016295205801725388,0.048674408346414566,0.24775955080986023,-0.0003359756854006468,-0.0020083987151900515,0.019345407695650286,OFFBOARD,True,0.0,0.0,5.0,0.0,0.0,5.0,0.949999988079071,APPROVED,OK,False
1784829396.3379767,-0.015209752134978771,-0.02223774418234825,4.618125915527344,-0.01491343043744564,0.047964178025722504,0.23192034661769867,-0.0031086770879235203,-0.0025332813704095226,0.02526678683421164,OFFBOARD,True,0.0,0.0,5.0,0.0,0.0,5.0,0.949999988079071,APPROVED,OK,False
1784829396.4379895,-0.017155304551124573,-0.014989134855568409,4.638753890991211,-0.012539799325168133,0.04463278129696846,0.2167169749736786,-0.0052122438572116845,-0.0028886721130767083,0.030435809374157626,OFFBOARD,True,0.0,0.0,5.0,0.0,0.0,5.0,0.949999988079071,APPROVED,OK,False
1784829396.5380483,-0.01850658468902111,-0.009105684235692024,4.656618118286133,-0.010312624275684357,0.03957541286945343,0.20388257503509521,-0.006525186487049996,-0.003071655227241769,0.03450709954992781,OFFBOARD,True,0.0,0.0,5.0,0.0,0.0,5.0,0.949999988079071,APPROVED,OK,False
1784829396.6380458,-0.019408926367759705,-0.004028841853141785,4.675208568572998,-0.007574502378702164,0.0325951986014843,0.1912325620651245,-0.007164172037148422,-0.0031088365959241106,0.03717153386320287,OFFBOARD,True,0.0,0.0,5.0,0.0,0.0,5.0,0.949999988079071,APPROVED,OK,False
1784829396.7380173,-0.019359968602657318,-0.0004635659570340067,4.692355632781982,-0.004355171695351601,0.02564927004277706,0.1804581880569458,-0.007208846099540182,-0.003050786053206219,0.03836633319128848,OFFBOARD,True,0.0,0.0,5.0,0.0,0.0,5.0,0.949999988079071,APPROVED,OK,False
1784829396.8380642,-0.018684199079871178,0.0024041025899350643,4.710464954376221,-0.0011949699837714434,0.018132409080863,0.16918456554412842,-0.006729134777866067,-0.0028229621480273287,0.03818896877778119,OFFBOARD,True,0.0,0.0,5.0,0.0,0.0,5.0,0.949999988079071,APPROVED,OK,False
1784829396.9380429,-0.01759759895503521,0.003856430761516094,4.7261176109313965,0.0016736964462324977,0.011371278204023838,0.15845955908298492,-0.005924620557588698,-0.0024470860346998175,0.03682098106556018,OFFBOARD,True,0.0,0.0,5.0,0.0,0.0,5.0,0.949999988079071,APPROVED,OK,False
1784829397.0380213,-0.016592269763350487,0.004424146376550198,4.741637229919434,0.0036676479503512383,0.004882364999502897,0.1471826285123825,-0.0048690060907611,-0.0019975837100975253,0.03451340943355891,OFFBOARD,True,0.0,0.0,5.0,0.0,0.0,5.0,0.949999988079071,APPROVED,OK,False
1784829397.1380205,-0.015129846520721912,0.004840502515435219,4.754352569580078,0.005708572920411825,0.00030145279015414417,0.13757526874542236,-0.003657340884006232,-0.0015915475985519862,0.03149429028834927,OFFBOARD,True,0.0,0.0,5.0,0.0,0.0,5.0,0.949999988079071,APPROVED,OK,False
1784829397.2380207,-0.013017367571592331,0.005524454638361931,4.7665300369262695,0.007847864180803299,-0.002747689839452505,0.1287621557712555,-0.002521511484036356,-0.0011314794041514067,0.028179186247033406,OFFBOARD,True,0.0,0.0,5.0,0.0,0.0,5.0,0.949999988079071,APPROVED,OK,False
1784829397.338022,-0.010881094262003899,0.006454284302890301,4.776707172393799,0.009122536517679691,-0.004271861631423235,0.12139779329299927,-0.0016200283498363545,-0.0006354303759660404,0.024760972416414454,OFFBOARD,True,0.0,0.0,5.0,0.0,0.0,5.0,0.949999988079071,APPROVED,OK,False
1784829397.4380088,-0.008520622737705708,0.008115570992231369,4.787225246429443,0.009901477955281734,-0.004249074496328831,0.1149471327662468,-0.0010352223871338223,-0.000129402964737058,0.021593986707874258,OFFBOARD,True,0.0,0.0,5.0,0.0,0.0,5.0,0.949999988079071,APPROVED,OK,False
1784829397.5380387,-0.006569898221641779,0.009932214394211769,4.797060489654541,0.010025027208030224,-0.003838968463242054,0.1100221648812294,-0.0008407205822499655,0.00035495693027360345,0.018773450294696927,OFFBOARD,True,0.0,0.0,5.0,0.0,0.0,5.0,0.949999988079071,APPROVED,OK,False
1784829397.6380184,-0.004657455254346132,0.011219223961234093,4.807043552398682,0.009556259959936142,-0.003865396836772561,0.10420725494623184,-0.0009859456701880453,0.0007630032063394616,0.016411939522731157,OFFBOARD,True,0.0,0.0,5.0,0.0,0.0,5.0,0.949999988079071,APPROVED,OK,False
1784829397.7380235,-0.003185051726177335,0.012108570896089077,4.815958499908447,0.00843979325145483,-0.004391103517264128,0.09923712909221649,-0.0012495545819785636,0.0011004808950277475,0.01460804711264267,OFFBOARD,True,0.0,0.0,5.0,0.0,0.0,5.0,0.949999988079071,APPROVED,OK,False
1784829397.8380206,-0.001681659952737391,0.012552671134471893,4.825633525848389,0.006900829263031483,-0.005681917071342468,0.09401401877403259,-0.0015147772666046387,0.0012956388660006065,0.013260868463737637,OFFBOARD,True,0.0,0.0,5.0,0.0,0.0,5.0,0.949999988079071,APPROVED,OK,False
1784829397.9380553,-7.353507680818439e-05,0.012760978192090988,4.834259510040283,0.005873238667845726,-0.007070358842611313,0.0891956016421318,-0.0016390425293494677,0.0013968725574895007,0.012386868461230363,OFFBOARD,True,0.0,0.0,5.0,0.0,0.0,5.0,0.949999988079071,APPROVED,OK,False
1784829398.0380626,0.0016310891369357705,0.013297632336616516,4.843302249908447,0.00433609401807189,-0.008179210126399994,0.08422459661960602,-0.0016748829169749109,0.001454816247361856,0.011873100700017482,OFFBOARD,True,0.0,0.0,5.0,0.0,0.0,5.0,0.949999988079071,APPROVED,OK,False
1784829398.1380115,0.003046558704227209,0.013638085685670376,4.851340293884277,0.0029236488044261932,-0.0089084068313241,0.07946043461561203,-0.0016713754074037697,0.0015158227163322548,0.011631951483027456,OFFBOARD,True,0.0,0.0,5.0,0.0,0.0,5.0,0.949999988079071,APPROVED,OK,False
1784829398.2380652,0.004327013157308102,0.013510813936591148,4.860070705413818,0.0009327022125944495,-0.010216518305242062,0.07454326003789902,-0.0016935299202359324,0.0015586877033877304,0.011530088880387666,OFFBOARD,True,0.0,0.0,5.0,0.0,0.0,5.0,0.949999988079071,APPROVED,OK,False
1784829398.338079,0.005565813276916742,0.013577219098806381,4.868407249450684,-0.0006004812894389033,-0.011239634826779366,0.069748654961586,-0.0016669764396752083,0.001511123722900269,0.011507266981944618,OFFBOARD,True,0.0,0.0,5.0,0.0,0.0,5.0,0.949999988079071,APPROVED,OK,False
1784829398.4380465,0.00685453275218606,0.013694205321371555,4.875412940979004,-0.002194918692111969,-0.01216457411646843,0.0650830939412117,-0.0015967228947173276,0.0014659301971573896,0.011474793733316658,OFFBOARD,True,0.0,0.0,5.0,0.0,0.0,5.0,0.949999988079071,APPROVED,OK,False
1784829398.5380235,0.008661139756441116,0.013641622848808765,4.881214618682861,-0.002960194367915392,-0.012853538617491722,0.060481950640678406,-0.0015541041145828854,0.0014135809666363137,0.011352613659480626,OFFBOARD,True,0.0,0.0,5.0,0.0,0.0,5.0,0.949999988079071,APPROVED,OK,False
1784829398.638111,0.010789736174046993,0.014144575223326683,4.886388301849365,-0.0036370367743074894,-0.01298168208450079,0.05650269240140915,-0.0014775327870133225,0.0014534255484570178,0.0111163614410167,OFFBOARD,True,0.0,0.0,5.0,0.0,0.0,5.0,0.949999988079071,APPROVED,OK,False
1784829398.7380176,0.012345443479716778,0.015125766396522522,4.890660762786865,-0.004676970187574625,-0.012691561132669449,0.05379932373762131,-0.0014287850874082216,0.0015908295479379485,0.01077138161676138,OFFBOARD,True,0.0,0.0,5.0,0.0,0.0,5.0,0.949999988079071,APPROVED,OK,False
1784829398.8380313,0.01323683001101017,0.016385404393076897,4.8951029777526855,-0.006458745803683996,-0.012396585196256638,0.05172218754887581,-0.00145312354507461,0.0017501627647923353,0.010365853401251181,OFFBOARD,True,0.0,0.0,5.0,0.0,0.0,5.0,0.949999988079071,APPROVED,OK,False
1784829398.9380572,0.013232856057584286,0.01778915524482727,4.898879051208496,-0.008576645515859127,-0.01179038267582655,0.0499122180044651,-0.0015988144546761908,0.0017902251815107948,0.009879590742610241,OFFBOARD,True,0.0,0.0,5.0,0.0,0.0,5.0,0.949999988079071,APPROVED,OK,False
1784829399.0380204,0.01247991994023323,0.019632330164313316,4.903017044067383,-0.01085957232862711,-0.011181535199284554,0.048490073531866074,-0.0018227491825407512,0.0016464785894015313,0.00936736710365122,OFFBOARD,True,0.0,0.0,5.0,0.0,0.0,5.0,0.949999988079071,APPROVED,OK,False
1784829399.1380644,0.011261179111897945,0.021585147827863693,4.906824588775635,-0.012670476920902729,-0.010839436203241348,0.04713959991931915,-0.002148965722768079,0.0013529800979639648,0.008840195247557145,OFFBOARD,True,0.0,0.0,5.0,0.0,0.0,5.0,0.949999988079071,APPROVED,OK,False
1784829399.2380433,0.009822675958275795,0.023706626147031784,4.910708427429199,-0.014668604359030724,-0.010691121220588684,0.0455612950026989,-0.0024827033258629574,0.0009604752725595041,0.008284076696267247,OFFBOARD,True,0.0,0.0,5.0,0.0,0.0,5.0,0.949999988079071,APPROVED,OK,False
1784829399.3380296,0.00837703887373209,0.02498743124306202,4.914312362670898,-0.015785658732056618,-0.011336326599121094,0.044016338884830475,-0.0028476118973686567,0.0004981570151850306,0.007744345869221811,OFFBOARD,True,0.0,0.0,5.0,0.0,0.0,5.0,0.949999988079071,APPROVED,OK,False
1784829399.4380403,0.006636673118919134,0.025812452659010887,4.918100357055664,-0.01647094637155533,-0.012927766889333725,0.04237126186490059,-0.0031663807203322685,6.336144001271785e-05,0.007205329994356681,OFFBOARD,True,0.0,0.0,5.0,0.0,0.0,5.0,0.949999988079071,APPROVED,OK,False
1784829399.538022,0.00527392840012908,0.02659480646252632,4.921484470367432,-0.016457974910736084,-0.014340410009026527,0.04074962064623833,-0.003274331805464189,-0.00036210142634481707,0.006708980680265102,OFFBOARD,True,0.0,0.0,5.0,0.0,0.0,5.0,0.949999988079071,APPROVED,OK,False
1784829399.6380455,0.0037603434175252914,0.02740900032222271,4.925171852111816,-0.016181807965040207,-0.015725018456578255,0.0392056405544281,-0.003248873691602979,-0.0007077904892662085,0.006201523283522255,OFFBOARD,True,0.0,0.0,5.0,0.0,0.0,5.0,0.949999988079071,APPROVED,OK,False
1784829399.738019,0.0022566390689462423,0.027450820431113243,4.928896903991699,-0.015596277080476284,-0.01750851795077324,0.037887830287218094,-0.0031643635976544193,-0.0009615417538152282,0.0057497116200974745,OFFBOARD,True,0.0,0.0,5.0,0.0,0.0,5.0,0.949999988079071,APPROVED,OK,False
1784829399.8380024,0.00016196744400076568,0.02735600247979164,4.933322906494141,-0.01510651409626007,-0.019044917076826096,0.03613204136490822,-0.00303274728064036,-0.0011477016569511717,0.005335014790469783,OFFBOARD,True,0.0,0.0,5.0,0.0,0.0,5.0,0.949999988079071,APPROVED,OK,False
1784829399.9380305,-0.002080000936985016,0.02716555818915367,4.937700271606445,-0.014620850794017315,-0.02042582258582115,0.034053925424814224,-0.002860301346044793,-0.0013910437530779093,0.004971016011132806,OFFBOARD,True,0.0,0.0,5.0,0.0,0.0,5.0,0.949999988079071,APPROVED,OK,False
1784829400.038024,-0.004626845940947533,0.026847634464502335,4.942370414733887,-0.013818185776472092,-0.02152084931731224,0.031258080154657364,-0.0026415318863258442,-0.001673859045167251,0.00468058679942746,OFFBOARD,True,0.0,0.0,5.0,0.0,0.0,5.0,0.949999988079071,APPROVED,OK,False
1784829400.1380217,-0.006988602690398693,0.025959189981222153,4.946537494659424,-0.01300024800002575,-0.02251824550330639,0.02866460010409355,-0.0024417600163927676,-0.001960343772705486,0.004416163610942308,OFFBOARD,True,0.0,0.0,5.0,0.0,0.0,5.0,0.949999988079071,APPROVED,OK,False
1784829400.2380242,-0.009201416745781898,0.023419678211212158,4.950901985168457,-0.012219304218888283,-0.024670200422406197,0.02549079619348049,-0.0022578179440781838,-0.0022665505146102012,0.004151006084949461,OFFBOARD,True,0.0,0.0,5.0,0.0,0.0,5.0,0.949999988079071,APPROVED,OK,False
1784829400.3380382,-0.01050689909607172,0.019467443227767944,4.9545769691467285,-0.010790752246975899,-0.02753237448632717,0.022714223712682724,-0.001901224143492916,-0.0025721451224141227,0.003894437077803794,OFFBOARD,True,0.0,0.0,5.0,0.0,0.0,5.0,0.949999988079071,APPROVED,OK,False
1784829400.4380393,-0.01105525903403759,0.014401606284081936,4.958499908447266,-0.008931485936045647,-0.030172130092978477,0.019793933257460594,-0.0011981388449935656,-0.002772822105488838,0.0036436896569999222,OFFBOARD,True,0.0,0.0,5.0,0.0,0.0,5.0,0.949999988079071,APPROVED,OK,False
1784829400.538041,-0.011044297367334366,0.009004714898765087,4.961523056030273,-0.006699466146528721,-0.03181431069970131,0.017321189865469933,-0.00023483032634719214,-0.0028245097794856997,0.0034456471311573927,OFFBOARD,True,0.0,0.0,5.0,0.0,0.0,5.0,0.949999988079071,APPROVED,OK,False
1784829400.638091,-0.010529590770602226,0.0030324484687298536,4.964352607727051,-0.004387838765978813,-0.032556187361478806,0.014761816710233688,0.00091526135457638,-0.0027035342401444404,0.003235428576459886,OFFBOARD,True,0.0,0.0,5.0,0.0,0.0,5.0,0.949999988079071,APPROVED,OK,False
1784829400.738211,-0.009889047592878342,-0.002267904579639435,4.966369152069092,-0.002444976009428501,-0.031895626336336136,0.013040753081440926,0.0020356630583776548,-0.0024871295348160424,0.0030324361802103773,OFFBOARD,True,0.0,0.0,5.0,0.0,0.0,5.0,0.949999988079071,APPROVED,OK,False
1784829400.8380136,-0.008962134830653667,-0.007561186794191599,4.967696666717529,-0.00021198284230194986,-0.029983539134263992,0.011288519948720932,0.003055290710324399,-0.0021595780760207102,0.0028646852696299296,OFFBOARD,True,0.0,0.0,5.0,0.0,0.0,5.0,0.949999988079071,APPROVED,OK,False
1784829400.9380038,-0.007796154823154211,-0.012322450056672096,4.968193054199219,0.0018806089647114277,-0.027403440326452255,0.010361960157752037,0.0038620370466670383,-0.0017970970725971211,0.0027193075904230015,OFFBOARD,True,0.0,0.0,5.0,0.0,0.0,5.0,0.949999988079071,APPROVED,OK,False
1784829401.0382166,-0.006080541759729385,-0.016582923009991646,4.968285083770752,0.0038981675170361996,-0.023522721603512764,0.010202175006270409,0.004489808788768276,-0.0013508805457161238,0.0026226949844251764,OFFBOARD,True,0.0,0.0,5.0,0.0,0.0,5.0,0.949999988079071,APPROVED,OK,False
1784829401.1380017,-0.0042120665311813354,-0.019345959648489952,4.9678568840026855,0.005357228685170412,-0.018573088571429253,0.01050843670964241,0.004910456765456886,-0.0008870438904559062,0.002590146357224546,OFFBOARD,True,0.0,0.0,5.0,0.0,0.0,5.0,0.949999988079071,APPROVED,OK,False
1784829401.2380638,-0.003227576147764921,-0.02136930637061596,4.96748685836792,0.005454974714666605,-0.01289826538413763,0.011613860726356506,0.004982955631666893,-0.00033179004703313194,0.0025990948674428018,OFFBOARD,True,0.0,0.0,5.0,0.0,0.0,5.0,0.949999988079071,APPROVED,OK,False
1784829401.3380833,-0.0026824744418263435,-0.022146975621581078,4.967501163482666,0.004829525016248226,-0.007587580941617489,0.012831171974539757,0.004806663312141475,5.1534567342133395e-05,0.0026201689968270475,OFFBOARD,True,0.0,0.0,5.0,0.0,0.0,5.0,0.949999988079071,APPROVED,OK,False
1784829401.4382303,-0.0020977589301764965,-0.022020604461431503,4.967972755432129,0.003986835014075041,-0.0014180776197463274,0.013922066427767277,0.004349026190678209,0.00021035036634712445,0.0026516752219259334,OFFBOARD,True,0.0,0.0,5.0,0.0,0.0,5.0,0.949999988079071,APPROVED,OK,False
1784829401.5380816,-0.0013953362358734012,-0.020972702652215958,4.9686102867126465,0.003477113088592887,0.0038107712753117085,0.014776044525206089,0.003703131414566144,0.00021655121405359,0.0026442910238713545,OFFBOARD,True,0.0,0.0,5.0,0.0,0.0,5.0,0.949999988079071,APPROVED,OK,False
1784829401.6380954,-0.0005691107362508774,-0.018467482179403305,4.969039440155029,0.0030223692301660776,0.009348667226731777,0.01503030490130186,0.002862824121950725,0.0002551735697532222,0.002627650285424237,OFFBOARD,True,0.0,0.0,5.0,0.0,0.0,5.0,0.949999988079071,APPROVED,OK,False
1784829401.738127,0.0008336753817275167,-0.015852268785238266,4.969320297241211,0.0030179661698639393,0.013243160210549831,0.015065868385136127,0.0019213573739766993,0.00027923085507580866,0.0025671610099986092,OFFBOARD,True,0.0,0.0,5.0,0.0,0.0,5.0,0.949999988079071,APPROVED,OK,False
1784829401.8380022,0.0035655831452459097,-0.013535684905946255,4.969931125640869,0.003971609752625227,0.015227073803544044,0.01528660673648119,0.000854816319789953,0.00036564935813536,0.002461988108539214,OFFBOARD,True,0.0,0.0,5.0,0.0,0.0,5.0,0.949999988079071,APPROVED,OK,False
1784829401.9380367,0.006503008306026459,-0.011671350337564945,4.970792770385742,0.004861584398895502,0.015723785385489464,0.016054105013608932,-5.58596317017747e-05,0.0006898232933541934,0.002293421167801855,OFFBOARD,True,0.0,0.0,5.0,0.0,0.0,5.0,0.949999988079071,APPROVED,OK,False
1784829402.0379953,0.009403924457728863,-0.010062606073915958,4.971978664398193,0.005317315459251404,0.015056976117193699,0.01640508882701397,-0.0006963691834528527,0.0011934357967140021,0.00211509735910587,OFFBOARD,True,0.0,0.0,5.0,0.0,0.0,5.0,0.949999988079071,APPROVED,OK,False
1784829402.137993,0.011647026985883713,-0.009151583537459373,4.973361968994141,0.00498390756547451,0.013799088075757027,0.016364501789212227,-0.001034127940073491,0.0017711188357705002,0.001897996851915508,OFFBOARD,True,0.0,0.0,5.0,0.0,0.0,5.0,0.949999988079071,APPROVED,OK,False
1784829402.2379923,0.013728664256632328,-0.00887613371014595,4.974963188171387,0.0037047506775707006,0.0114529924467206,0.015792634338140488,-0.0011459474670209905,0.00223990903341,0.0017184282675266063,OFFBOARD,True,0.0,0.0,5.0,0.0,0.0,5.0,0.949999988079071,APPROVED,OK,False
1784829402.3380797,0.01581336371600628,-0.008805464953184128,4.976212024688721,0.002526645315811038,0.009304068051278591,0.014848037622869015,-0.0010045224916599487,0.002552371449431506,0.0015966343313930835,OFFBOARD,True,0.0,0.0,5.0,0.0,0.0,5.0,0.949999988079071,APPROVED,OK,False
1784829402.4380598,0.018690017983317375,-0.008994866162538528,4.977726459503174,0.0014904455747455359,0.007339205127209425,0.014018051326274872,-0.0007153598968920808,0.0027844955805348785,0.0014814589692256038,OFFBOARD,True,0.0,0.0,5.0,0.0,0.0,5.0,0.949999988079071,APPROVED,OK,False
1784829402.5380197,0.02098870649933815,-0.009179966524243355,4.979355812072754,-8.474057540297508e-05,0.006439098156988621,0.013402985408902168,-0.00038464363258334405,0.0030375172061747105,0.0014044362656880213,OFFBOARD,True,0.0,0.0,5.0,0.0,0.0,5.0,0.949999988079071,APPROVED,OK,False
1784829402.6380258,0.0224636010825634,-0.009220859967172146,4.980743885040283,-0.0028462002519518137,0.006134336348623037,0.012022603303194046,-6.190805390252211e-05,0.003296808491025097,0.0013913671151063868,OFFBOARD,True,0.0,0.0,5.0,0.0,0.0,5.0,0.949999988079071,APPROVED,OK,False
1784829402.7380795,0.02332482486963272,-0.009247188456356525,4.981729984283447,-0.005512274336069822,0.006244977004826069,0.01092077512294054,0.00011308056756339194,0.0033818838856053473,0.0013953660657572248,OFFBOARD,True,0.0,0.0,5.0,0.0,0.0,5.0,0.949999988079071,APPROVED,OK,False
1784829402.8380656,0.023513419553637505,-0.009419851936399937,4.982989311218262,-0.008813413791358471,0.006582812871783972,0.01007390022277832,0.00016576883621265812,0.0032927213597225367,0.0014486314194279363,OFFBOARD,True,0.0,0.0,5.0,0.0,0.0,5.0,0.949999988079071,APPROVED,OK,False
1784829402.9381373,0.02297048456966877,-0.009504290297627449,4.983401775360107,-0.011870846152305603,0.006871510297060013,0.00889209471642971,0.0001501973823739556,0.003070752305747373,0.001462080942427285,OFFBOARD,True,0.0,0.0,5.0,0.0,0.0,5.0,0.949999988079071,APPROVED,OK,False
1784829403.0381143,0.021148033440113068,-0.009487783536314964,4.983410835266113,-0.015512386336922646,0.007255831267684698,0.008338993415236473,9.282789389632489e-05,0.002665169432610598,0.0015313619116769065,OFFBOARD,True,0.0,0.0,5.0,0.0,0.0,5.0,0.949999988079071,APPROVED,OK,False
1784829403.1380448,0.018630309030413628,-0.009549644775688648,4.9834113121032715,-0.0185945276170969,0.0073259673081338406,0.008415917865931988,2.8084849048283876e-05,0.0021098127408526023,0.0015042499154606264,OFFBOARD,True,0.0,0.0,5.0,0.0,0.0,5.0,0.949999988079071,APPROVED,OK,False
1784829403.238065,0.015719374641776085,-0.010022911243140697,4.983196258544922,-0.020633604377508163,0.006848506163805723,0.008467601612210274,-2.7208720854767067e-05,0.001312973354996337,0.0015161555975153186,OFFBOARD,True,0.0,0.0,5.0,0.0,0.0,5.0,0.949999988079071,APPROVED,OK,False
1784829403.3380284,0.01311851479113102,-0.01053785253316164,4.982982158660889,-0.02145298756659031,0.006565538235008717,0.008818290196359158,2.3397466607488843e-05,0.0005873913515998412,0.001497770921587644,OFFBOARD,True,0.0,0.0,5.0,0.0,0.0,5.0,0.949999988079071,APPROVED,OK,False
1784829403.4381497,0.010092757642269135,-0.01133942324668169,4.983180522918701,-0.02178223989903927,0.005999553017318249,0.009516279213130474,0.00013097267872270218,-8.283958605186373e-05,0.0014344692502585076,OFFBOARD,True,0.0,0.0,5.0,0.0,0.0,5.0,0.949999988079071,APPROVED,OK,False
1784829403.5380914,0.006731912959367037,-0.012464814819395542,4.98375129699707,-0.021988196298480034,0.0051651750691235065,0.009817956015467644,0.0002833665075228387,-0.0006552052687259744,0.001281353892878678,OFFBOARD,True,0.0,0.0,5.0,0.0,0.0,5.0,0.949999988079071,APPROVED,OK,False
1784829403.6381176,0.002769042970612645,-0.013855593279004097,4.9842610359191895,-0.021839341148734093,0.004611245356500149,0.009915873408317566,0.0005378539685419735,-0.0011890253991173414,0.001135712743238053,OFFBOARD,True,0.0,0.0,5.0,0.0,0.0,5.0,0.949999988079071,APPROVED,OK,False
1784829403.7380457,-0.0005570990033447742,-0.015147633850574493,4.984563827514648,-0.020883554592728615,0.004353674594312906,0.009989166632294655,0.0008325037679077467,-0.0018028290230832978,0.0009678679341595598,OFFBOARD,True,0.0,0.0,5.0,0.0,0.0,5.0,0.949999988079071,APPROVED,OK,False
1784829403.8381355,-0.003805451560765505,-0.01627720147371292,4.985185623168945,-0.01937922276556492,0.004432841204106808,0.010171975940465927,0.001159509502095695,-0.002321812780487869,0.0008101040882959888,OFFBOARD,True,0.0,0.0,5.0,0.0,0.0,5.0,0.949999988079071,APPROVED,OK,False
1784829403.938191,-0.006983285769820213,-0.016795381903648376,4.986395359039307,-0.01765744574368,0.005372983869165182,0.01016231905668974,0.0014198588860932337,-0.002745066025990913,0.0007120305546409824,OFFBOARD,True,0.0,0.0,5.0,0.0,0.0,5.0,0.949999988079071,APPROVED,OK,False
1784829404.0381012,-0.009985298849642277,-0.01681673340499401,4.987485885620117,-0.01542570348829031,0.006735611706972122,0.009415054693818092,0.0015763985120170975,-0.0031057457542081786,0.0006122646358676652,OFFBOARD,True,0.0,0.0,5.0,0.0,0.0,5.0,0.949999988079071,APPROVED,OK,False
1784829404.1380053,-0.011819995008409023,-0.016575543209910393,4.9877848625183105,-0.012296915985643864,0.008057758212089539,0.008471626788377762,0.001559516154536705,-0.0033699649842069963,0.0004877123154672808,OFFBOARD,True,0.0,0.0,5.0,0.0,0.0,5.0,0.949999988079071,APPROVED,OK,False
1784829404.2380843,-0.012522007338702679,-0.015395292080938816,4.987589359283447,-0.008250175975263119,0.009991724044084549,0.008003800176084042,0.0014083341007297282,-0.003491369184249376,0.0003854828085953567,OFFBOARD,True,0.0,0.0,5.0,0.0,0.0,5.0,0.949999988079071,APPROVED,OK,False
1784829404.3381956,-0.01229353528469801,-0.013306982815265656,4.9876861572265625,-0.004398723598569632,0.01199196744710207,0.008056453429162502,0.0011658371125091444,-0.0033297283635950227,0.0003019735979079864,OFFBOARD,True,0.0,0.0,5.0,0.0,0.0,5.0,0.949999988079071,APPROVED,OK,False
1784829404.4381042,-0.011822178959846497,-0.010793516412377357,4.988178730010986,-0.0010437887394800782,0.01359010674059391,0.008121458813548088,0.0006820047425419801,-0.0029401123041349164,0.00025499710851536436,OFFBOARD,True,0.0,0.0,5.0,0.0,0.0,5.0,0.949999988079071,APPROVED,OK,False
1784829404.5380228,-0.011548500508069992,-0.008356445468962193,4.9889445304870605,0.0014137367252260447,0.014623143710196018,0.00814194604754448,0.00013766715271561916,-0.0024526069314896514,0.0002253633693227566,OFFBOARD,True,0.0,0.0,5.0,0.0,0.0,5.0,0.949999988079071,APPROVED,OK,False
1784829404.638013,-0.011127732694149017,-0.005759719759225845,4.989701747894287,0.003080810885876417,0.014554471708834171,0.008032946847379208,-0.0005092003275109377,-0.0020073225697858415,0.00023398043837554393,OFFBOARD,True,0.0,0.0,5.0,0.0,0.0,5.0,0.949999988079071,APPROVED,OK,False
1784829404.7386672,-0.01095942035317421,-0.004899941384792328,4.989995956420898,0.00357650825753808,0.014448167756199837,0.007933408953249454,-0.0006897070057451974,-0.0018779573126121796,0.00022817664672357925,OFFBOARD,True,0.0,0.0,5.0,0.0,0.0,5.0,0.949999988079071,APPROVED,OK,False
1784829404.8379917,-0.01035055797547102,-0.0020804202649742365,4.9906744956970215,0.004784635733813047,0.014128820039331913,0.0071162269450724125,-0.0011510263316667447,-0.0015207132132235204,0.0002563355172341957,OFFBOARD,True,0.0,0.0,5.0,0.0,0.0,5.0,0.949999988079071,APPROVED,OK,False
1784829404.937977,-0.009554062969982624,0.0012575353030115366,4.990830898284912,0.006001925561577082,0.013538538478314877,0.006315475795418024,-0.0015471336125409253,-0.001251107524573047,0.00029735992501835675,OFFBOARD,True,0.0,0.0,5.0,0.0,0.0,5.0,0.949999988079071,APPROVED,OK,False
1784829405.0385792,-0.008794973604381084,0.0036398228257894516,4.990867614746094,0.006716701202094555,0.013250228948891163,0.006013931706547737,-0.0018039141275639319,-0.0010707587652808873,0.0003018268578014329,OFFBOARD,True,0.0,0.0,5.0,0.0,0.0,5.0,0.949999988079071,APPROVED,OK,False
1784829405.1380157,-0.0071574910543859005,0.007663724012672901,4.9909749031066895,0.00806990172713995,0.012720641680061817,0.005999645683914423,-0.002225718925400214,-0.0008266099971501027,0.0003498284357135556,OFFBOARD,True,0.0,0.0,5.0,0.0,0.0,5.0,0.949999988079071,APPROVED,OK,False
1784829405.2380757,-0.005366806406527758,0.012007994577288628,4.991594314575195,0.009118199348449707,0.012256120331585407,0.005835273303091526,-0.002714296998867862,-0.0004682954921186304,0.00040775731697138953,OFFBOARD,True,0.0,0.0,5.0,0.0,0.0,5.0,0.949999988079071,APPROVED,OK,False
1784829405.3380032,-0.00326894992031157,0.015390599146485329,4.99312162399292,0.010275833308696747,0.010069656185805798,0.005894527770578861,-0.0032906214814560865,-6.121736809476803e-05,0.00044833309378738365,OFFBOARD,True,0.0,0.0,5.0,0.0,0.0,5.0,0.949999988079071,APPROVED,OK,False
1784829405.4380221,-0.0013994489563629031,0.01704757660627365,4.995059967041016,0.010806964710354805,0.006290067918598652,0.005509866401553154,-0.003911363543343006,0.00040526657194050374,0.0004574179973636767,OFFBOARD,True,0.0,0.0,5.0,0.0,0.0,5.0,0.949999988079071,APPROVED,OK,False
1784829405.538181,0.000724289973732084,0.017851905897259712,4.99748420715332,0.011065350845456123,0.0018031151266768575,0.003992543090134859,-0.004173971318895498,0.0008515681121603793,0.0004225685569443715,OFFBOARD,True,0.0,0.0,5.0,0.0,0.0,5.0,0.949999988079071,APPROVED,OK,False
1784829405.638233,0.0024217788595706224,0.01780562289059162,4.99936580657959,0.010480723343789577,-0.0024772926699370146,0.0018708085408434272,-0.00400432473807429,0.0012644266120786154,0.00039480814080663834,OFFBOARD,True,0.0,0.0,5.0,0.0,0.0,5.0,0.949999988079071,APPROVED,OK,False
1784829405.7382374,0.0037513438146561384,0.017043666914105415,5.000340461730957,0.00936372485011816,-0.0066691068932414055,-0.0007853079587221146,-0.003536627081555991,0.001636717617175444,0.000370608340981837,OFFBOARD,True,0.0,0.0,5.0,0.0,0.0,5.0,0.949999988079071,APPROVED,OK,False
1784829405.8381321,0.0047885519452393055,0.016204671934247017,5.000256538391113,0.007891309447586536,-0.009922036901116371,-0.0026792746502906084,-0.0028497412246284697,0.0018715424678604562,0.0003737569824760655,OFFBOARD,True,0.0,0.0,5.0,0.0,0.0,5.0,0.949999988079071,APPROVED,OK,False
1784829405.9381282,0.005668142344802618,0.015500622801482677,4.99975061416626,0.006127652712166309,-0.012355824001133442,-0.0033229731488972902,-0.0021202476576645556,0.0019655333449199322,0.00037033297719078995,OFFBOARD,True,0.0,0.0,5.0,0.0,0.0,5.0,0.949999988079071,APPROVED,OK,False
1784829406.0380416,0.005692281760275364,0.014948021620512009,4.999344348907471,0.003994494676589966,-0.013519368134438992,-0.0027890808414667845,-0.0014313874121552744,0.00196576617601339,0.0003511097233759018,OFFBOARD,True,0.0,0.0,5.0,0.0,0.0,5.0,0.949999988079071,APPROVED,OK,False
1784829406.138097,0.004881095606833696,0.014349538832902908,4.998928546905518,0.001260627992451191,-0.014040458016097546,-0.0022682601120322943,-0.0009745175266128999,0.0018349488784159423,0.0003570633907021701,OFFBOARD,True,0.0,0.0,5.0,0.0,0.0,5.0,0.949999988079071,APPROVED,OK,False
1784829406.2380931,0.0034131093416363,0.014068401418626308,4.998889446258545,-0.00167555280495435,-0.01370997168123722,-0.0014897782821208239,-0.000670493584201978,0.0015132828803429293,0.00039180523481540107,OFFBOARD,True,0.0,0.0,5.0,0.0,0.0,5.0,0.949999988079071,APPROVED,OK,False
1784829406.3381267,0.0012273092288523912,0.013770668767392635,4.999074935913086,-0.004296483006328344,-0.01305981632322073,-0.0011386320693418384,-0.0005769574193873245,0.001031363682196326,0.0004394188560387098,OFFBOARD,True,0.0,0.0,5.0,0.0,0.0,5.0,0.949999988079071,APPROVED,OK,False
1784829406.438082,-0.001223743543960154,0.012855920009315014,4.999044418334961,-0.006306792609393597,-0.012874242849647999,-0.0010087161790579557,-0.0006261901673145715,0.00036707879286417385,0.000486882481185564,OFFBOARD,True,0.0,0.0,5.0,0.0,0.0,5.0,0.949999988079071,APPROVED,OK,False
1784829406.5380416,-0.0039419131353497505,0.011691861785948277,4.998877048492432,-0.007243963424116373,-0.01283794641494751,-0.0012424318119883537,-0.0006830840529959009,-0.0003488603468035093,0.0005054817193425928,OFFBOARD,True,0.0,0.0,5.0,0.0,0.0,5.0,0.949999988079071,APPROVED,OK,False
1784829406.6380882,-0.0064244698733091354,0.011059639044106007,4.99899435043335,-0.007290688809007406,-0.012307626195251942,-0.0009885989129543304,-0.0006255016944309902,-0.0010103005306275326,0.0005026374090516971,OFFBOARD,True,0.0,0.0,5.0,0.0,0.0,5.0,0.949999988079071,APPROVED,OK,False
1784829406.7381191,-0.009266327135264874,0.011431790888309479,4.999349594116211,-0.006880583707243204,-0.010511642321944237,-0.0008193557732738554,-0.0005147024531830306,-0.0015335685065419624,0.00047523979979683913,OFFBOARD,True,0.0,0.0,5.0,0.0,0.0,5.0,0.949999988079071,APPROVED,OK,False
1784829406.838047,-0.011370639316737652,0.012518377043306828,4.999220848083496,-0.005616117734462023,-0.008560830727219582,-0.0010377013823017478,-0.0004957469982038285,-0.0020154548949578126,0.0004593092527402409,OFFBOARD,True,0.0,0.0,5.0,0.0,0.0,5.0,0.949999988079071,APPROVED,OK,False
1784829406.9383187,-0.012741291895508766,0.01394312921911478,4.998527526855469,-0.0033751323353499174,-0.006521008908748627,-0.001338678877800703,-0.0007923293941110493,-0.0023600008359719814,0.0004323406195981164,OFFBOARD,True,0.0,0.0,5.0,0.0,0.0,5.0,0.949999988079071,APPROVED,OK,False
1784829407.0381637,-0.01310679130256176,0.015348536893725395,4.997581481933594,-0.0009474536054767668,-0.005396158900111914,-0.018418611958622932,-0.0010889500158296692,-0.0022957096017959286,0.00037170564372186385,AUTO_LAND,True,0.0,0.0,5.0,0.0,0.0,5.0,0.949999988079071,APPROVED,OK,False
1784829407.1380079,-0.013065583072602749,0.01616029627621174,4.991323947906494,0.0012209757696837187,-0.004965667612850666,-0.09979376196861267,-0.0011980156940670343,-0.0019239443582106095,0.0002848016272817204,AUTO_LAND,True,0.0,0.0,5.0,0.0,0.0,5.0,0.949999988079071,APPROVED,OK,False
1784829407.2380083,-0.012995142489671707,0.016387682408094406,4.97514009475708,0.0025757011026144028,-0.005427430383861065,-0.19835436344146729,-0.0012848951160178092,-0.0013266238782766097,0.00020059175060995,AUTO_LAND,True,0.0,0.0,5.0,0.0,0.0,5.0,0.949999988079071,APPROVED,OK,False
1784829407.3381045,-0.013585684821009636,0.016662703827023506,4.942528247833252,0.0027948091737926006,-0.005695827770978212,-0.3698364198207855,-0.0013254851648888328,-0.0005158064533573584,0.00016287541417551223,AUTO_LAND,True,0.0,0.0,5.0,0.0,0.0,5.0,0.949999988079071,APPROVED,OK,False
1784829407.4380214,-0.014804796315729618,0.017016742378473282,4.894367218017578,0.002070295624434948,-0.0057214293628931046,-0.4914255142211914,-0.001195991813413094,2.7671718274980692e-05,0.0001801410815983395,AUTO_LAND,True,0.0,0.0,5.0,0.0,0.0,5.0,0.949999988079071,APPROVED,OK,False
1784829407.5380766,-0.016962580382823944,0.01698598451912403,4.829555988311768,0.00034955007140524685,-0.006050443276762962,-0.6033720970153809,-0.001152567577931201,0.0001552559412501008,0.00021536991194188578,AUTO_LAND,True,0.0,0.0,5.0,0.0,0.0,5.0,0.949999988079071,APPROVED,OK,False
1784829407.6381195,-0.019795319065451622,0.015986282378435135,4.762655735015869,-0.0019749740604311228,-0.0074225012212991714,-0.5868690013885498,-0.001072651003272927,-0.00010396654416211699,0.00031118881574862577,AUTO_LAND,True,0.0,0.0,5.0,0.0,0.0,5.0,0.949999988079071,APPROVED,OK,False
1784829407.7381501,-0.022388719022274017,0.014105737209320068,4.694703578948975,-0.0033720768988132477,-0.009114915505051613,-0.5830986499786377,-0.0008782949306316818,-0.0007377848465632376,0.0003882656485260539,AUTO_LAND,True,0.0,0.0,5.0,0.0,0.0,5.0,0.949999988079071,APPROVED,OK,False
1784829407.8381433,-0.02371634542942047,0.011908914893865585,4.636299133300781,-0.0030673062428832054,-0.010716899298131466,-0.4994793236255646,-0.00043401290108687314,-0.001506421586284394,0.0004678499229608909,AUTO_LAND,True,0.0,0.0,5.0,0.0,0.0,5.0,0.949999988079071,APPROVED,OK,False
1784829407.9380887,-0.024220649152994156,0.009066090919077396,4.582096576690674,-0.0014775010058656335,-0.012312737293541431,-0.49620521068573,-9.148463101037285e-05,-0.002069268222543583,0.0005120265504371419,AUTO_LAND,True,0.0,0.0,5.0,0.0,0.0,5.0,0.949999988079071,APPROVED,OK,False
1784829408.0381212,-0.0241257194429636,0.005738613661378622,4.522850513458252,0.0009722423856146634,-0.01313369907438755,-0.4747473895549774,0.0004691202499577718,-0.0022599569667254397,0.0005539979642800357,AUTO_LAND,True,0.0,0.0,5.0,0.0,0.0,5.0,0.949999988079071,APPROVED,OK,False
1784829408.1381366,-0.024272998794913292,0.00269036996178329,4.4726057052612305,0.0028885649517178535,-0.01311292964965105,-0.5205594897270203,0.0010031354274032804,-0.0020731879348372504,0.0005583425693439546,AUTO_LAND,True,0.0,0.0,5.0,0.0,0.0,5.0,0.949999988079071,APPROVED,OK,False
1784829408.2380772,-0.0247342586517334,0.00046015458065085113,4.4306535720825195,0.004253367427736521,-0.01203967072069645,-0.46352991461753845,0.0015773462755025456,-0.001832012762649046,0.0005555613114136614,AUTO_LAND,True,0.0,0.0,5.0,0.0,0.0,5.0,0.949999988079071,APPROVED,OK,False
1784829408.3380516,-0.02475792169570923,-0.001522986451163888,4.3846588134765625,0.005600732751190662,-0.010204030200839043,-0.5367040038108826,0.0019724621159726585,-0.0016142756238612342,0.0005325581426256546,AUTO_LAND,True,0.0,0.0,5.0,0.0,0.0,5.0,0.949999988079071,APPROVED,OK,False
1784829408.4381077,-0.024052416905760765,-0.0030150769744068384,4.3383002281188965,0.007111572194844484,-0.008017548359930515,-0.5234012603759766,0.002190800494327155,-0.0014471400457907165,0.0005432152077036623,AUTO_LAND,True,0.0,0.0,5.0,0.0,0.0,5.0,0.949999988079071,APPROVED,OK,False
1784829408.5380788,-0.022419482469558716,-0.0047139972448349,4.282537937164307,0.008875210769474506,-0.006404155399650335,-0.6092566847801208,0.00226307247549619,-0.0012193816476173433,0.000512901175853485,AUTO_LAND,True,0.0,0.0,5.0,0.0,0.0,5.0,0.949999988079071,APPROVED,OK,False
1784829408.6381776,-0.020234212279319763,-0.006658917758613825,4.2248382568359375,0.010772849433124065,-0.004826530814170837,-0.5936089754104614,0.002279458153221406,-0.0008702125567291796,0.0004643880954685386,AUTO_LAND,True,0.0,0.0,5.0,0.0,0.0,5.0,0.949999988079071,APPROVED,OK,False
1784829408.738252,-0.017784951254725456,-0.008626563474535942,4.157475471496582,0.012487541884183884,-0.0032860615756362677,-0.6663731336593628,0.0023126223883903675,-0.00038630690920802256,0.0004363740948427785,AUTO_LAND,True,0.0,0.0,5.0,0.0,0.0,5.0,0.949999988079071,APPROVED,OK,False
1784829408.838194,-0.01590261049568653,-0.010360253043472767,4.0911946296691895,0.012724342755973339,-0.00190281355753541,-0.6375153660774231,0.0023773971423928196,0.000207965147317954,0.0004286297729044411,AUTO_LAND,True,0.0,0.0,5.0,0.0,0.0,5.0,0.949999988079071,APPROVED,OK,False
1784829408.9381392,-0.01469308789819479,-0.011968153528869152,4.016851425170898,0.012111756950616837,-0.0002524583542253822,-0.6944023370742798,0.0024498962897628505,0.0007156134262512515,0.00039649507840583534,AUTO_LAND,True,0.0,0.0,5.0,0.0,0.0,5.0,0.949999988079071,APPROVED,OK,False
1784829409.0380836,-0.014331234619021416,-0.013152604922652245,3.946913480758667,0.010391375981271267,0.0016144264955073595,-0.6543924808502197,0.0025760099273579016,0.0010404225453247372,0.00043600235579593395,AUTO_LAND,True,0.0,0.0,5.0,0.0,0.0,5.0,0.949999988079071,APPROVED,OK,False
