timestamp,x,y,z,vx,vy,vz,roll,pitch,yaw,flight_mode,armed_status,proposed_x,proposed_y,proposed_z,approved_x,approved_y,approved_z,ai_confidence,safety_status,rejection_reason,failsafe_active
1784841536.965403,0.0,0.0,-0.0,0.0,0.0,-0.0,0.0,0.0,0.0,MANUAL,False,0.0,0.0,0.0,0.0,0.0,0.0,0.0,APPROVED,,False
1784841537.065394,0.0403941310942173,-0.05689527094364166,-0.005065843462944031,-0.01676693931221962,0.012932654470205307,-0.0017937106313183904,0.00018035394553647584,0.0005233569193196089,0.007803418378613547,OFFBOARD,False,0.0,0.0,5.0,0.0,0.0,5.0,0.949999988079071,APPROVED,OK,False
1784841537.1654873,0.0403941310942173,-0.05689527094364166,-0.005065843462944031,-0.01676693931221962,0.012932654470205307,-0.0017937106313183904,0.00018035394553647584,0.0005233569193196089,0.007803418378613547,OFFBOARD,False,0.0,0.0,5.0,0.0,0.0,5.0,0.949999988079071,APPROVED,OK,False
1784841537.2653723,0.04041225090622902,-0.05661545321345329,-0.005132898688316345,-0.01643780618906021,0.013002104125916958,-0.002006306080147624,0.00014401825786599021,0.0005099371413048769,0.007795947026583196,OFFBOARD,False,0.0,0.0,5.0,0.0,0.0,5.0,0.949999988079071,APPROVED,OK,False
1784841537.3656127,0.04041225090622902,-0.05661545321345329,-0.005132898688316345,-0.01643780618906021,0.013002104125916958,-0.002006306080147624,0.00014401825786599021,0.0005099371413048769,0.007795947026583196,OFFBOARD,False,0.0,0.0,5.0,0.0,0.0,5.0,0.949999988079071,APPROVED,OK,False
1784841537.4653964,0.040530700236558914,-0.056378670036792755,-0.005144357681274414,-0.015959348529577255,0.013106661848723888,-0.0021549162920564413,0.00013489573185196515,0.0004824150424370946,0.007793286516069133,OFFBOARD,False,0.0,0.0,5.0,0.0,0.0,5.0,0.949999988079071,APPROVED,OK,False
1784841537.5654178,0.040530700236558914,-0.056378670036792755,-0.005144357681274414,-0.015959348529577255,0.013106661848723888,-0.0021549162920564413,0.00013489573185196515,0.0004824150424370946,0.007793286516069133,OFFBOARD,False,0.0,0.0,5.0,0.0,0.0,5.0,0.949999988079071,APPROVED,OK,False
1784841537.6654658,0.04065314307808876,-0.05623480677604675,-0.005155667662620544,-0.015509296208620071,0.01308926660567522,-0.0021007154136896133,0.0001247995239214784,0.00047279194711049135,0.007787727246510272,OFFBOARD,False,0.0,0.0,5.0,0.0,0.0,5.0,0.949999988079071,APPROVED,OK,False
1784841537.7653797,0.040739499032497406,-0.05613379925489426,-0.005164742469787598,-0.015289384871721268,0.013100174255669117,-0.0020911258179694414,0.00010393351541990903,0.00046799033842285316,0.007782689086230628,OFFBOARD,False,0.0,0.0,5.0,0.0,0.0,5.0,0.949999988079071,APPROVED,OK,False
1784841537.8654387,0.04092947021126747,-0.055933017283678055,-0.005081892013549805,-0.014835202135145664,0.013159269466996193,-0.002065950306132436,9.890119996942595e-05,0.0004536609786643729,0.007780888733565284,OFFBOARD,False,0.0,0.0,5.0,0.0,0.0,5.0,0.949999988079071,APPROVED,OK,False
1784841537.9654036,0.041045207530260086,-0.05579458177089691,-0.005031690001487732,-0.01459000539034605,0.013277117162942886,-0.002043143380433321,9.975171541309797e-05,0.0004438902397194882,0.007793901068651749,OFFBOARD,False,0.0,0.0,5.0,0.0,0.0,5.0,0.949999988079071,APPROVED,OK,False
1784841538.065414,0.041045207530260086,-0.05579458177089691,-0.005031690001487732,-0.01459000539034605,0.013277117162942886,-0.002043143380433321,9.975171541309797e-05,0.0004438902397194882,0.007793901068651749,OFFBOARD,False,0.0,0.0,5.0,0.0,0.0,5.0,0.949999988079071,APPROVED,OK,False
1784841538.1654553,0.04138369485735893,-0.055415134876966476,-0.004943490028381348,-0.013962702825665474,0.013354705646634102,-0.0021985762286931276,0.00010858117595505907,0.0003944051088572847,0.007789204570011225,OFFBOARD,True,0.0,0.0,5.0,0.0,0.0,5.0,0.949999988079071,APPROVED,OK,False
1784841538.2654011,0.04138369485735893,-0.055415134876966476,-0.004943490028381348,-0.013962702825665474,0.013354705646634102,-0.0021985762286931276,0.00010858117595505907,0.0003944051088572847,0.007789204570011225,OFFBOARD,True,0.0,0.0,5.0,0.0,0.0,5.0,0.949999988079071,APPROVED,OK,False
1784841538.36541,0.04175526648759842,-0.05502535030245781,-0.004929497838020325,-0.013319416902959347,0.013577839359641075,-0.0022072764113545418,0.000125011408115601,0.0003510551832079751,0.007794033498542083,OFFBOARD,True,0.0,0.0,5.0,0.0,0.0,5.0,0.949999988079071,APPROVED,OK,False
1784841538.4653804,0.04175526648759842,-0.05502535030245781,-0.004929497838020325,-0.013319416902959347,0.013577839359641075,-0.0022072764113545418,0.000125011408115601,0.0003510551832079751,0.007794033498542083,OFFBOARD,True,0.0,0.0,5.0,0.0,0.0,5.0,0.949999988079071,APPROVED,OK,False
1784841538.5653844,0.0419839471578598,-0.05479035899043083,-0.004958778619766235,-0.012834669090807438,0.013663550838828087,-0.002182730007916689,0.0001196098087249433,0.0003303387553440429,0.00778678706797886,OFFBOARD,True,0.0,0.0,5.0,0.0,0.0,5.0,0.949999988079071,APPROVED,OK,False
1784841538.6653655,0.042389534413814545,-0.05441867187619209,-0.004998654127120972,-0.012168957851827145,0.013825681060552597,-0.002190276747569442,0.00012114109856984945,0.00030396559045276893,0.007799894835416239,OFFBOARD,True,0.0,0.0,5.0,0.0,0.0,5.0,0.949999988079071,APPROVED,OK,False
1784841538.7653933,0.042389534413814545,-0.05441867187619209,-0.004998654127120972,-0.012168957851827145,0.013825681060552597,-0.002190276747569442,0.00012114109856984945,0.00030396559045276893,0.007799894835416239,OFFBOARD,True,0.0,0.0,5.0,0.0,0.0,5.0,0.949999988079071,APPROVED,OK,False
1784841538.8653784,0.04280933365225792,-0.0539659783244133,-0.005028560757637024,-0.011316771619021893,0.014081641100347042,-0.002291698008775711,0.00014328974717479716,0.00028990625693495415,0.007788699499328366,OFFBOARD,True,0.0,0.0,5.0,0.0,0.0,5.0,0.949999988079071,APPROVED,OK,False
1784841538.9654377,0.04280933365225792,-0.0539659783244133,-0.005028560757637024,-0.011316771619021893,0.014081641100347042,-0.002291698008775711,0.00014328974717479716,0.00028990625693495415,0.007788699499328366,OFFBOARD,True,0.0,0.0,5.0,0.0,0.0,5.0,0.949999988079071,APPROVED,OK,False
1784841539.0654018,0.04297029599547386,-0.05374366417527199,-0.0050392597913742065,-0.011013713665306568,0.014221570454537868,-0.0022965148091316223,0.00014495329260747286,0.00027776358540643106,0.007789945619934654,OFFBOARD,True,0.0,0.0,5.0,0.0,0.0,5.0,0.949999988079071,APPROVED,OK,False
1784841539.165349,0.043319616466760635,-0.05311565846204758,-0.005024254322052002,-0.010485216043889523,0.014551426284015179,-0.0022289480548352003,0.00012634638267526897,0.000254793182676787,0.0077788885753112685,OFFBOARD,True,0.0,0.0,5.0,0.0,0.0,5.0,0.949999988079071,APPROVED,OK,False
1784841539.2656252,0.043319616466760635,-0.05311565846204758,-0.005024254322052002,-0.010485216043889523,0.014551426284015179,-0.0022289480548352003,0.00012634638267526897,0.000254793182676787,0.0077788885753112685,OFFBOARD,True,0.0,0.0,5.0,0.0,0.0,5.0,0.949999988079071,APPROVED,OK,False
1784841539.3653588,0.04361910745501518,-0.05247819423675537,-0.004958033561706543,-0.009879031218588352,0.01491803303360939,-0.002188074169680476,0.0001499092227919411,0.0002451579809532109,0.007794227904847926,OFFBOARD,True,0.0,0.0,5.0,0.0,0.0,5.0,0.949999988079071,APPROVED,OK,False
1784841539.4654047,0.04361910745501518,-0.05247819423675537,-0.004958033561706543,-0.009879031218588352,0.01491803303360939,-0.002188074169680476,0.0001499092227919411,0.0002451579809532109,0.007794227904847926,OFFBOARD,True,0.0,0.0,5.0,0.0,0.0,5.0,0.949999988079071,APPROVED,OK,False
1784841539.5653832,0.04379444941878319,-0.05210001394152641,-0.004889398813247681,-0.009545037522912025,0.015033796429634094,-0.0020612948574125767,0.00016255667059537917,0.0002294526513776383,0.007788810207806603,OFFBOARD,True,0.0,0.0,5.0,0.0,0.0,5.0,0.949999988079071,APPROVED,OK,False
1784841539.6652977,0.04404238611459732,-0.05149046704173088,-0.004720702767372131,-0.009006773121654987,0.0154194924980402,-0.0018622522475197911,0.00018633697421613658,0.0002130464288457289,0.007788892138389173,OFFBOARD,True,0.0,0.0,5.0,0.0,0.0,5.0,0.949999988079071,APPROVED,OK,False
1784841539.7653956,0.04404238611459732,-0.05149046704173088,-0.004720702767372131,-0.009006773121654987,0.0154194924980402,-0.0018622522475197911,0.00018633697421613658,0.0002130464288457289,0.007788892138389173,OFFBOARD,True,0.0,0.0,5.0,0.0,0.0,5.0,0.949999988079071,APPROVED,OK,False
1784841539.865333,0.04418179765343666,-0.05090190842747688,-0.004494190216064453,-0.008617490530014038,0.015877626836299896,-0.00172835448756814,0.00019919754912556695,0.0001920624211364176,0.007774795179706466,OFFBOARD,True,0.0,0.0,5.0,0.0,0.0,5.0,0.949999988079071,APPROVED,OK,False
1784841539.9654014,0.04418179765343666,-0.05090190842747688,-0.004494190216064453,-0.008617490530014038,0.015877626836299896,-0.00172835448756814,0.00019919754912556695,0.0001920624211364176,0.007774795179706466,OFFBOARD,True,0.0,0.0,5.0,0.0,0.0,5.0,0.949999988079071,APPROVED,OK,False
1784841540.065386,0.044201526790857315,-0.05066090077161789,-0.004381611943244934,-0.008483829908072948,0.016052905470132828,-0.0016048268880695105,0.0002126519740375341,0.00019315342189707088,0.007771415775230071,OFFBOARD,True,0.0,0.0,5.0,0.0,0.0,5.0,0.949999988079071,APPROVED,OK,False
1784841540.1653142,0.04415927827358246,-0.05008053034543991,-0.0040416717529296875,-0.008157369680702686,0.016347454860806465,-0.0013666934100911021,0.00021016347985110032,0.00018904432475942828,0.0077871141520738365,OFFBOARD,True,0.0,0.0,5.0,0.0,0.0,5.0,0.949999988079071,APPROVED,OK,False
1784841540.2658727,0.04415927827358246,-0.05008053034543991,-0.0040416717529296875,-0.008157369680702686,0.016347454860806465,-0.0013666934100911021,0.00021016347985110032,0.00018904432475942828,0.0077871141520738365,OFFBOARD,True,0.0,0.0,5.0,0.0,0.0,5.0,0.949999988079071,APPROVED,OK,False
1784841540.3653948,0.043977510184049606,-0.04959157481789589,-0.003788173198699951,-0.007976329885423183,0.016653219237923622,-0.0012967513175681233,0.00021939610286977,0.00018790780560799114,0.007804097799559395,OFFBOARD,True,0.0,0.0,5.0,0.0,0.0,5.0,0.949999988079071,APPROVED,OK,False
1784841540.4653666,0.043977510184049606,-0.04959157481789589,-0.003788173198699951,-0.007976329885423183,0.016653219237923622,-0.0012967513175681233,0.00021939610286977,0.00018790780560799114,0.007804097799559395,OFFBOARD,True,0.0,0.0,5.0,0.0,0.0,5.0,0.949999988079071,APPROVED,OK,False
1784841540.5653653,0.0438208132982254,-0.049341414123773575,-0.0036875009536743164,-0.007904940284788609,0.016811519861221313,-0.0012075004633516073,0.00023278335618855535,0.00018898191159389893,0.007792368367789487,OFFBOARD,True,0.0,0.0,5.0,0.0,0.0,5.0,0.949999988079071,APPROVED,OK,False
1784841540.6653202,0.04350675642490387,-0.04893473908305168,-0.0035878121852874756,-0.0078064631670713425,0.017120741307735443,-0.0010484145022928715,0.00026150761628383496,0.00019699086387921352,0.0077984482384475095,OFFBOARD,True,0.0,0.0,5.0,0.0,0.0,5.0,0.949999988079071,APPROVED,OK,False
1784841540.7656448,0.04350675642490387,-0.04893473908305168,-0.0035878121852874756,-0.0078064631670713425,0.017120741307735443,-0.0010484145022928715,0.00026150761628383496,0.00019699086387921352,0.0077984482384475095,OFFBOARD,True,0.0,0.0,5.0,0.0,0.0,5.0,0.949999988079071,APPROVED,OK,False
1784841540.8655114,0.04309652000665665,-0.04858141764998436,-0.0035425424575805664,-0.007798296865075827,0.01729143224656582,-0.0009745423449203372,0.0002675518136434224,0.00021220921348796975,0.0078053719255954225,OFFBOARD,True,0.0,0.0,5.0,0.0,0.0,5.0,0.949999988079071,APPROVED,OK,False
1784841540.9654918,0.04309652000665665,-0.04858141764998436,-0.0035425424575805664,-0.007798296865075827,0.01729143224656582,-0.0009745423449203372,0.0002675518136434224,0.00021220921348796975,0.0078053719255954225,OFFBOARD,True,0.0,0.0,5.0,0.0,0.0,5.0,0.949999988079071,APPROVED,OK,False
1784841541.0653944,0.04290430247783661,-0.04848510026931763,-0.003535240888595581,-0.007829848676919937,0.01738203689455986,-0.0009656971669755876,0.00027629495411808966,0.00021287951837427457,0.007802751570801171,OFFBOARD,True,0.0,0.0,5.0,0.0,0.0,5.0,0.949999988079071,APPROVED,OK,False
1784841541.1653333,0.04236730560660362,-0.04836646839976311,-0.003539532423019409,-0.008097575977444649,0.017395759001374245,-0.0009131537517532706,0.00027891555219821307,0.00024001623617895252,0.007798695119748998,OFFBOARD,True,0.0,0.0,5.0,0.0,0.0,5.0,0.949999988079071,APPROVED,OK,False
1784841541.2655995,0.04236730560660362,-0.04836646839976311,-0.003539532423019409,-0.008097575977444649,0.017395759001374245,-0.0009131537517532706,0.00027891555219821307,0.00024001623617895252,0.007798695119748998,OFFBOARD,True,0.0,0.0,5.0,0.0,0.0,5.0,0.949999988079071,APPROVED,OK,False
1784841541.365405,0.042035188525915146,-0.04837938770651817,-0.003560855984687805,-0.008294629864394665,0.017335357144474983,-0.0009007178014144301,0.0002617653338887651,0.00025108570380396326,0.007805080017342052,OFFBOARD,True,0.0,0.0,5.0,0.0,0.0,5.0,0.949999988079071,APPROVED,OK,False
1784841541.4653132,0.04150998964905739,-0.04862973466515541,-0.0036409348249435425,-0.008352610282599926,0.016927750781178474,-0.0008330800919793546,0.00026319340085926565,0.0002529467483016189,0.007804078353047825,OFFBOARD,True,0.0,0.0,5.0,0.0,0.0,5.0,0.949999988079071,APPROVED,OK,False
1784841541.5653508,0.04150998964905739,-0.04862973466515541,-0.0036409348249435425,-0.008352610282599926,0.016927750781178474,-0.0008330800919793546,0.00026319340085926565,0.0002529467483016189,0.007804078353047825,OFFBOARD,True,0.0,0.0,5.0,0.0,0.0,5.0,0.949999988079071,APPROVED,OK,False
1784841541.6653552,0.041005443781614304,-0.049097396433353424,-0.003656834363937378,-0.008611340075731277,0.016458258032798767,-0.0007242903811857104,0.00025763055337017326,0.00026528034088285884,0.007795048465027812,OFFBOARD,True,0.0,0.0,5.0,0.0,0.0,5.0,0.949999988079071,APPROVED,OK,False
1784841541.765441,0.041005443781614304,-0.049097396433353424,-0.003656834363937378,-0.008611340075731277,0.016458258032798767,-0.0007242903811857104,0.00025763055337017326,0.00026528034088285884,0.007795048465027812,OFFBOARD,True,0.0,0.0,5.0,0.0,0.0,5.0,0.949999988079071,APPROVED,OK,False
1784841541.8654118,0.04080480709671974,-0.049343008548021317,-0.0036417096853256226,-0.008671062998473644,0.016229979693889618,-0.0005952533683739603,0.0002521727135029047,0.0002913225366962775,0.007786348772970833,OFFBOARD,True,0.0,0.0,5.0,0.0,0.0,5.0,0.949999988079071,APPROVED,OK,False
1784841541.9653876,0.04030623286962509,-0.050035860389471054,-0.003589347004890442,-0.008826196193695068,0.015644226223230362,-0.0005966477910988033,0.000233258336879877,0.0002974970601144306,0.007759337752618935,OFFBOARD,True,0.0,0.0,5.0,0.0,0.0,5.0,0.949999988079071,APPROVED,OK,False
1784841542.0654204,0.04030623286962509,-0.050035860389471054,-0.003589347004890442,-0.008826196193695068,0.015644226223230362,-0.0005966477910988033,0.000233258336879877,0.0002974970601144306,0.007759337752618935,OFFBOARD,True,0.0,0.0,5.0,0.0,0.0,5.0,0.949999988079071,APPROVED,OK,False
1784841542.165407,0.0397675521671772,-0.05083155259490013,-0.003416791558265686,-0.009099223650991917,0.014934691600501537,-0.0004993993206880987,0.0002142235571614137,0.0002948842054129043,0.007743938795860583,OFFBOARD,True,0.0,0.0,5.0,0.0,0.0,5.0,0.949999988079071,APPROVED,OK,False
1784841542.2654004,0.0397675521671772,-0.05083155259490013,-0.003416791558265686,-0.009099223650991917,0.014934691600501537,-0.0004993993206880987,0.0002142235571614137,0.0002948842054129043,0.007743938795860583,OFFBOARD,True,0.0,0.0,5.0,0.0,0.0,5.0,0.949999988079071,APPROVED,OK,False
1784841542.3654072,0.03943309932947159,-0.051369842141866684,-0.003248661756515503,-0.009301538579165936,0.014403942972421646,-0.00046791278873570263,0.0001905439516983601,0.00029678873105750406,0.007736378562428575,OFFBOARD,True,0.0,0.0,5.0,0.0,0.0,5.0,0.949999988079071,APPROVED,OK,False
1784841542.4654171,0.03891086205840111,-0.05236700549721718,-0.0028267204761505127,-0.009427531622350216,0.013527950271964073,-0.0002357686316827312,0.00014029361017193993,0.0003051263967843672,0.007744134403271023,OFFBOARD,True,0.0,0.0,5.0,0.0,0.0,5.0,0.949999988079071,APPROVED,OK,False
1784841542.5653906,0.03891086205840111,-0.05236700549721718,-0.0028267204761505127,-0.009427531622350216,0.013527950271964073,-0.0002357686316827312,0.00014029361017193993,0.0003051263967843672,0.007744134403271023,OFFBOARD,True,0.0,0.0,5.0,0.0,0.0,5.0,0.949999988079071,APPROVED,OK,False
1784841542.6653945,0.03844241425395012,-0.0534035861492157,-0.002328649163246155,-0.00936161819845438,0.012508146464824677,-6.62046077195555e-05,0.00010562396143583568,0.0003092838791612958,0.0077297986006980715,OFFBOARD,True,0.0,0.0,5.0,0.0,0.0,5.0,0.949999988079071,APPROVED,OK,False
1784841542.7654545,0.03844241425395012,-0.0534035861492157,-0.002328649163246155,-0.00936161819845438,0.012508146464824677,-6.62046077195555e-05,0.00010562396143583568,0.0003092838791612958,0.0077297986006980715,OFFBOARD,True,0.0,0.0,5.0,0.0,0.0,5.0,0.949999988079071,APPROVED,OK,False
1784841542.8653922,0.038275718688964844,-0.053816527128219604,-0.002126544713973999,-0.00937250629067421,0.01212884858250618,8.007377618923783e-05,0.00010578734283694396,0.000301989527585551,0.007720967053230434,OFFBOARD,True,0.0,0.0,5.0,0.0,0.0,5.0,0.949999988079071,APPROVED,OK,False
1784841542.965347,0.03793644160032272,-0.05479965731501579,-0.0017603039741516113,-0.00949963741004467,0.01150624267756939,0.00016848748782649636,7.48093695649163e-05,0.0002969482200554349,0.007720446416697355,OFFBOARD,True,0.0,0.0,5.0,0.0,0.0,5.0,0.949999988079071,APPROVED,OK,False
1784841543.065375,0.03793644160032272,-0.05479965731501579,-0.0017603039741516113,-0.00949963741004467,0.01150624267756939,0.00016848748782649636,7.48093695649163e-05,0.0002969482200554349,0.007720446416697355,OFFBOARD,True,0.0,0.0,5.0,0.0,0.0,5.0,0.949999988079071,APPROVED,OK,False
1784841543.165369,0.037669990211725235,-0.05569523572921753,-0.0014377236366271973,-0.009556393139064312,0.010804456658661366,0.00023979459365364164,2.41495100855475e-05,0.0002932328540013925,0.007706745779334816,OFFBOARD,True,0.0,0.0,5.0,0.0,0.0,5.0,0.949999988079071,APPROVED,OK,False
1784841543.2653682,0.037669990211725235,-0.05569523572921753,-0.0014377236366271973,-0.009556393139064312,0.010804456658661366,0.00023979459365364164,2.41495100855475e-05,0.0002932328540013925,0.007706745779334816,OFFBOARD,True,0.0,0.0,5.0,0.0,0.0,5.0,0.949999988079071,APPROVED,OK,False
1784841543.3653867,0.037527021020650864,-0.056184567511081696,-0.0012469440698623657,-0.009596905671060085,0.01040339283645153,0.00031632775790058076,2.3339286726709837e-05,0.0002977710726903176,0.0076983939062961115,OFFBOARD,True,0.0,0.0,5.0,0.0,0.0,5.0,0.949999988079071,APPROVED,OK,False
1784841543.4653418,0.03734228387475014,-0.056919828057289124,-0.0009255260229110718,-0.009533590637147427,0.009741093963384628,0.0004346004861872643,-2.09956678937928e-06,0.00029169911117455754,0.007699334556230572,OFFBOARD,True,0.0,0.0,5.0,0.0,0.0,5.0,0.949999988079071,APPROVED,OK,False
1784841543.5653877,0.03734228387475014,-0.056919828057289124,-0.0009255260229110718,-0.009533590637147427,0.009741093963384628,0.0004346004861872643,-2.09956678937928e-06,0.00029169911117455754,0.007699334556230572,OFFBOARD,True,0.0,0.0,5.0,0.0,0.0,5.0,0.949999988079071,APPROVED,OK,False
1784841543.6654236,0.03721246495842934,-0.057620495557785034,-0.0006839632987976074,-0.009457089938223362,0.00920384656637907,0.0005752054275944829,-2.91791378474301e-05,0.0002897950220902759,0.007712917829978834,OFFBOARD,True,0.0,0.0,5.0,0.0,0.0,5.0,0.949999988079071,APPROVED,OK,False
1784841543.7653933,0.03721246495842934,-0.057620495557785034,-0.0006839632987976074,-0.009457089938223362,0.00920384656637907,0.0005752054275944829,-2.91791378474301e-05,0.0002897950220902759,0.007712917829978834,OFFBOARD,True,0.0,0.0,5.0,0.0,0.0,5.0,0.949999988079071,APPROVED,OK,False
1784841543.8654392,0.03719968721270561,-0.0578918382525444,-0.0006098151206970215,-0.009384595789015293,0.00898240227252245,0.000618689286056906,-4.47562761085452e-05,0.00028373705953161,0.007720897626344913,OFFBOARD,True,0.0,0.0,5.0,0.0,0.0,5.0,0.949999988079071,APPROVED,OK,False
1784841543.9653606,0.03731466084718704,-0.05856442078948021,-0.0005160421133041382,-0.009068110026419163,0.008254170417785645,0.0007170952740125358,-6.814517356117804e-05,0.0002659293854287682,0.007710980104494223,OFFBOARD,True,0.0,0.0,5.0,0.0,0.0,5.0,0.949999988079071,APPROVED,OK,False
1784841544.0654602,0.03731466084718704,-0.05856442078948021,-0.0005160421133041382,-0.009068110026419163,0.008254170417785645,0.0007170952740125358,-6.814517356117804e-05,0.0002659293854287682,0.007710980104494223,OFFBOARD,True,0.0,0.0,5.0,0.0,0.0,5.0,0.949999988079071,APPROVED,OK,False
1784841544.1655648,0.03766763210296631,-0.05932515487074852,-0.00046987831592559814,-0.008731527253985405,0.007521320134401321,0.0007867244421504438,-9.157222245103117e-05,0.0002531224481317109,0.007679970308927862,OFFBOARD,True,0.0,0.0,5.0,0.0,0.0,5.0,0.949999988079071,APPROVED,OK,False
1784841544.265361,0.03766763210296631,-0.05932515487074852,-0.00046987831592559814,-0.008731527253985405,0.007521320134401321,0.0007867244421504438,-9.157222245103117e-05,0.0002531224481317109,0.007679970308927862,OFFBOARD,True,0.0,0.0,5.0,0.0,0.0,5.0,0.949999988079071,APPROVED,OK,False
1784841544.3653896,0.03800252825021744,-0.0598418265581131,-0.00046275556087493896,-0.00843085628002882,0.007167622447013855,0.0009103971533477306,-0.00010247077068171612,0.00025539752373588445,0.007680970583329899,OFFBOARD,True,0.0,0.0,5.0,0.0,0.0,5.0,0.949999988079071,APPROVED,OK,False
1784841544.4653447,0.038683533668518066,-0.060719989240169525,-0.0005114376544952393,-0.007741984911262989,0.006398930214345455,0.0010393434204161167,-0.0001237219144139042,0.00021560330227348543,0.007678753432534165,OFFBOARD,True,0.0,0.0,5.0,0.0,0.0,5.0,0.949999988079071,APPROVED,OK,False
1784841544.565514,0.038683533668518066,-0.060719989240169525,-0.0005114376544952393,-0.007741984911262989,0.006398930214345455,0.0010393434204161167,-0.0001237219144139042,0.00021560330227348543,0.007678753432534165,OFFBOARD,True,0.0,0.0,5.0,0.0,0.0,5.0,0.949999988079071,APPROVED,OK,False
1784841544.6654756,0.03896061331033707,-0.061057284474372864,-0.0005348473787307739,-0.007424261886626482,0.006110480986535549,0.0010986999841406941,-0.0001315648289015651,0.000195567089913929,0.007678596002759591,OFFBOARD,True,0.0,0.0,5.0,0.0,0.0,5.0,0.949999988079071,APPROVED,OK,False
1784841544.7653391,0.03949365019798279,-0.061583250761032104,-0.0006060004234313965,-0.0069243828766047955,0.005706580821424723,0.0011611726367846131,-0.0001366552049997749,0.00017968894195582313,0.00766208454164872,OFFBOARD,True,0.0,0.0,5.0,0.0,0.0,5.0,0.949999988079071,APPROVED,OK,False
1784841544.8654087,0.03987337276339531,-0.061922963708639145,-0.0006743073463439941,-0.006602672394365072,0.005390608217567205,0.0011377952760085464,-0.00014354089462342785,0.00016536313417294665,0.007668296161193703,OFFBOARD,True,0.0,0.0,5.0,0.0,0.0,5.0,0.949999988079071,APPROVED,OK,False
1784841544.9653957,0.040910981595516205,-0.0627676248550415,-0.0010412782430648804,-0.005788224749267101,0.004598609637469053,0.0011213540565222502,-0.00014161374017173783,0.00013653138054577226,0.0076496654043552706,OFFBOARD,True,0.0,0.0,5.0,0.0,0.0,5.0,0.949999988079071,APPROVED,OK,False
1784841545.0654523,0.040910981595516205,-0.0627676248550415,-0.0010412782430648804,-0.005788224749267101,0.004598609637469053,0.0011213540565222502,-0.00014161374017173783,0.00013653138054577226,0.0076496654043552706,OFFBOARD,True,0.0,0.0,5.0,0.0,0.0,5.0,0.949999988079071,APPROVED,OK,False
1784841545.1656551,0.04153551906347275,-0.0632762461900711,-0.0012947171926498413,-0.0052919951267540455,0.004113955423235893,0.0009424825548194349,-0.0001536596264833686,0.00012750341591513613,0.00762980855267627,OFFBOARD,True,0.0,0.0,5.0,0.0,0.0,5.0,0.949999988079071,APPROVED,OK,False
1784841545.2654557,0.04193906858563423,-0.06361497193574905,-0.001486167311668396,-0.0049861129373312,0.0038520547095686197,0.0008813777239993215,-0.00015823371518243376,0.00010845759992097684,0.007623838584155186,OFFBOARD,True,0.0,0.0,5.0,0.0,0.0,5.0,0.949999988079071,APPROVED,OK,False
1784841545.3653743,0.042504776269197464,-0.0641239657998085,-0.0018029212951660156,-0.004530054517090321,0.003479868872091174,0.0008309365948662162,-0.00017014605872612033,0.0001077994386192231,0.007613800497552627,OFFBOARD,True,0.0,0.0,5.0,0.0,0.0,5.0,0.949999988079071,APPROVED,OK,False
1784841545.4653835,0.04333753511309624,-0.06498637795448303,-0.0023802369832992554,-0.00396976200863719,0.002724507823586464,0.0006786260055378079,-0.00018397804693105684,8.408179574774455e-05,0.007596388435455031,OFFBOARD,True,0.0,0.0,5.0,0.0,0.0,5.0,0.949999988079071,APPROVED,OK,False
1784841545.5654445,0.04333753511309624,-0.06498637795448303,-0.0023802369832992554,-0.00396976200863719,0.002724507823586464,0.0006786260055378079,-0.00018397804693105684,8.408179574774455e-05,0.007596388435455031,OFFBOARD,True,0.0,0.0,5.0,0.0,0.0,5.0,0.949999988079071,APPROVED,OK,False
1784841545.66539,0.04363024979829788,-0.06533774733543396,-0.002652987837791443,-0.003760723629966378,0.0025210499297827482,0.0005817520432174206,-0.00020078306466317692,8.3757455384035e-05,0.007587727816947888,OFFBOARD,True,0.0,0.0,5.0,0.0,0.0,5.0,0.949999988079071,APPROVED,OK,False
1784841545.7653232,0.04426966607570648,-0.06619837880134583,-0.0034380704164505005,-0.0035106607247143984,0.001904727309010923,0.0003385170130059123,-0.00020625152898325397,8.164519394971045e-05,0.007569087324605824,OFFBOARD,True,0.0,0.0,5.0,0.0,0.0,5.0,0.949999988079071,APPROVED,OK,False
1784841545.865393,0.04426966607570648,-0.06619837880134583,-0.0034380704164505005,-0.0035106607247143984,0.001904727309010923,0.0003385170130059123,-0.00020625152898325397,8.164519394971045e-05,0.007569087324605824,OFFBOARD,True,0.0,0.0,5.0,0.0,0.0,5.0,0.949999988079071,APPROVED,OK,False
1784841545.965383,0.04479290172457695,-0.0670057162642479,-0.004142403602600098,-0.003164655528962612,0.0012517396826297045,-7.429229299305007e-06,-0.0002146142238021862,7.947262937885323e-05,0.007555479380016005,OFFBOARD,True,0.0,0.0,5.0,0.0,0.0,5.0,0.949999988079071,APPROVED,OK,False
1784841546.0655956,0.04479290172457695,-0.0670057162642479,-0.004142403602600098,-0.003164655528962612,0.0012517396826297045,-7.429229299305007e-06,-0.0002146142238021862,7.947262937885323e-05,0.007555479380016005,OFFBOARD,True,0.0,0.0,5.0,0.0,0.0,5.0,0.949999988079071,APPROVED,OK,False
1784841546.1654146,0.04505061358213425,-0.06747843325138092,-0.004626467823982239,-0.0030819743406027555,0.0008515912340953946,-0.0002763848751783371,-0.00021968152107938393,8.591687230020473e-05,0.00756321004797002,OFFBOARD,True,0.0,0.0,5.0,0.0,0.0,5.0,0.949999988079071,APPROVED,OK,False
1784841546.2654436,0.04537253826856613,-0.06826949864625931,-0.005489334464073181,-0.0029473791364580393,0.00036963573074899614,-0.0005126141477376223,-0.0002187063680071667,8.031052866037663e-05,0.007551401002633419,OFFBOARD,True,0.0,0.0,5.0,0.0,0.0,5.0,0.949999988079071,APPROVED,OK,False
1784841546.3654113,0.04537253826856613,-0.06826949864625931,-0.005489334464073181,-0.0029473791364580393,0.00036963573074899614,-0.0005126141477376223,-0.0002187063680071667,8.031052866037663e-05,0.007551401002633419,OFFBOARD,True,0.0,0.0,5.0,0.0,0.0,5.0,0.949999988079071,APPROVED,OK,False
1784841546.4653893,0.04556231200695038,-0.06905753165483475,-0.006340116262435913,-0.003003452206030488,-9.551808761898428e-05,-0.0008612392120994627,-0.0002381799163336811,8.89287185863184e-05,0.007548811391898765,OFFBOARD,True,0.0,0.0,5.0,0.0,0.0,5.0,0.949999988079071,APPROVED,OK,False
1784841546.5653756,0.04556231200695038,-0.06905753165483475,-0.006340116262435913,-0.003003452206030488,-9.551808761898428e-05,-0.0008612392120994627,-0.0002381799163336811,8.89287185863184e-05,0.007548811391898765,OFFBOARD,True,0.0,0.0,5.0,0.0,0.0,5.0,0.949999988079071,APPROVED,OK,False
1784841546.6654313,0.04561462625861168,-0.0693584755063057,-0.006683722138404846,-0.0029617438558489084,-0.0002548414922785014,-0.0008675677236169577,-0.0002502011520067297,8.71256416950887e-05,0.007546843915699551,OFFBOARD,True,0.0,0.0,5.0,0.0,0.0,5.0,0.949999988079071,APPROVED,OK,False
1784841546.765414,0.04561462625861168,-0.0693584755063057,-0.006683722138404846,-0.0029617438558489084,-0.0002548414922785014,-0.0008675677236169577,-0.0002502011520067297,8.71256416950887e-05,0.007546843915699551,OFFBOARD,True,0.0,0.0,5.0,0.0,0.0,5.0,0.949999988079071,APPROVED,OK,False
1784841546.8654034,0.04572755843400955,-0.07006518542766571,-0.007535830140113831,-0.0028304439038038254,-0.0005025063874199986,-0.001046449295245111,-0.0002558398451144905,0.00010268732166735046,0.007542581607748473,OFFBOARD,True,0.0,0.0,5.0,0.0,0.0,5.0,0.949999988079071,APPROVED,OK,False
1784841546.9654245,0.04572755843400955,-0.07006518542766571,-0.007535830140113831,-0.0028304439038038254,-0.0005025063874199986,-0.001046449295245111,-0.0002558398451144905,0.00010268732166735046,0.007542581607748473,OFFBOARD,True,0.0,0.0,5.0,0.0,0.0,5.0,0.949999988079071,APPROVED,OK,False
1784841547.0654082,0.04579919949173927,-0.07068461924791336,-0.008451893925666809,-0.002854905789718032,-0.0007526195258833468,-0.0013062878279015422,-0.00026337331438086933,0.0001249303462439602,0.007522670316441816,OFFBOARD,True,0.0,0.0,5.0,0.0,0.0,5.0,0.949999988079071,APPROVED,OK,False
1784841547.1653707,0.045797016471624374,-0.07102023810148239,-0.008976206183433533,-0.0029243980534374714,-0.000910277187358588,-0.0014062385307624936,-0.00026232196804616757,0.00013884039116460507,0.007528389278579873,OFFBOARD,True,0.0,0.0,5.0,0.0,0.0,5.0,0.949999988079071,APPROVED,OK,False
1784841547.265421,0.045797016471624374,-0.07102023810148239,-0.008976206183433533,-0.0029243980534374714,-0.000910277187358588,-0.0014062385307624936,-0.00026232196804616757,0.00013884039116460507,0.007528389278579873,OFFBOARD,True,0.0,0.0,5.0,0.0,0.0,5.0,0.949999988079071,APPROVED,OK,False
1784841547.3654242,0.04576404020190239,-0.07152292132377625,-0.009817555546760559,-0.0028497730381786823,-0.001047999714501202,-0.0016541591612622142,-0.00025288906699772194,0.00014032729132520963,0.007558421562588009,OFFBOARD,True,0.0,0.0,5.0,0.0,0.0,5.0,0.949999988079071,APPROVED,OK,False
1784841547.4654157,0.04576404020190239,-0.07152292132377625,-0.009817555546760559,-0.0028497730381786823,-0.001047999714501202,-0.0016541591612622142,-0.00025288906699772194,0.00014032729132520963,0.007558421562588009,OFFBOARD,True,0.0,0.0,5.0,0.0,0.0,5.0,0.949999988079071,APPROVED,OK,False
1784841547.5653954,0.04579216614365578,-0.07191860675811768,-0.010671377182006836,-0.0029632330406457186,-0.0010572513565421104,-0.001869498984888196,-0.00023327694070580078,0.0001388293899165864,0.0075821537374979224,OFFBOARD,True,0.0,0.0,5.0,0.0,0.0,5.0,0.949999988079071,APPROVED,OK,False
1784841547.6654198,0.04579216614365578,-0.07191860675811768,-0.010671377182006836,-0.0029632330406457186,-0.0010572513565421104,-0.001869498984888196,-0.00023327694070580078,0.0001388293899165864,0.0075821537374979224,OFFBOARD,True,0.0,0.0,5.0,0.0,0.0,5.0,0.949999988079071,APPROVED,OK,False
1784841547.765656,0.045828722417354584,-0.07203394174575806,-0.011000216007232666,-0.002896784106269479,-0.0010225337464362383,-0.0019274100195616484,-0.00023602376051825045,0.00014456592958018898,0.007575841057816292,OFFBOARD,True,0.0,0.0,5.0,0.0,0.0,5.0,0.949999988079071,APPROVED,OK,False
1784841547.8654416,0.045828722417354584,-0.07203394174575806,-0.011000216007232666,-0.002896784106269479,-0.0010225337464362383,-0.0019274100195616484,-0.00023602376051825045,0.00014456592958018898,0.007575841057816292,OFFBOARD,True,0.0,0.0,5.0,0.0,0.0,5.0,0.949999988079071,APPROVED,OK,False
1784841547.9656532,0.04595258831977844,-0.07221698760986328,-0.011795908212661743,-0.0028678495436906815,-0.0008515121880918741,-0.0020958581008017063,-0.00022020412567119873,0.00014942648759770993,0.007580961621881475,OFFBOARD,True,0.0,0.0,5.0,0.0,0.0,5.0,0.949999988079071,APPROVED,OK,False
1784841548.0654113,0.046037521213293076,-0.07227696478366852,-0.012264594435691833,-0.002760748378932476,-0.0006773778004571795,-0.00215384759940207,-0.0002060104929060075,0.000157005299760601,0.007580288730752726,OFFBOARD,True,0.0,0.0,5.0,0.0,0.0,5.0,0.949999988079071,APPROVED,OK,False
1784841548.1654165,0.046037521213293076,-0.07227696478366852,-0.012264594435691833,-0.002760748378932476,-0.0006773778004571795,-0.00215384759940207,-0.0002060104929060075,0.000157005299760601,0.007580288730752726,OFFBOARD,True,0.0,0.0,5.0,0.0,0.0,5.0,0.949999988079071,APPROVED,OK,False
1784841548.2653887,0.04618573561310768,-0.07231052219867706,-0.013013869524002075,-0.002784434938803315,-0.0003639490169007331,-0.002347619039937854,-0.00020688402976956198,0.00015436403980315121,0.0075729515576999674,OFFBOARD,True,0.0,0.0,5.0,0.0,0.0,5.0,0.949999988079071,APPROVED,OK,False
1784841548.3654091,0.04618573561310768,-0.07231052219867706,-0.013013869524002075,-0.002784434938803315,-0.0003639490169007331,-0.002347619039937854,-0.00020688402976956198,0.00015436403980315121,0.0075729515576999674,OFFBOARD,True,0.0,0.0,5.0,0.0,0.0,5.0,0.949999988079071,APPROVED,OK,False
1784841548.4654126,0.046225402504205704,-0.07231447845697403,-0.01364852488040924,-0.0027051831129938364,-0.0001128010917454958,-0.0025303007569164038,-0.0002055887197973117,0.00014463423627098507,0.007589865316627944,OFFBOARD,True,0.0,0.0,5.0,0.0,0.0,5.0,0.949999988079071,APPROVED,OK,False
1784841548.565332,0.046203505247831345,-0.07230428606271744,-0.013871505856513977,-0.002645837841555476,-2.6127250748686492e-05,-0.002523857867345214,-0.00019089010650306194,0.0001528826693673383,0.007597230902956,OFFBOARD,True,0.0,0.0,5.0,0.0,0.0,5.0,0.949999988079071,APPROVED,OK,False
1784841548.6654055,0.046203505247831345,-0.07230428606271744,-0.013871505856513977,-0.002645837841555476,-2.6127250748686492e-05,-0.002523857867345214,-0.00019089010650306194,0.0001528826693673383,0.007597230902956,OFFBOARD,True,0.0,0.0,5.0,0.0,0.0,5.0,0.949999988079071,APPROVED,OK,False
1784841548.765347,0.04609323665499687,-0.0722571611404419,-0.014404445886611938,-0.002708433661609888,0.00023633615637663752,-0.0027766977436840534,-0.0001821566579815397,0.0001554507040858675,0.007594164437878666,OFFBOARD,True,0.0,0.0,5.0,0.0,0.0,5.0,0.949999988079071,APPROVED,OK,False
1784841548.8654013,0.04609323665499687,-0.0722571611404419,-0.014404445886611938,-0.002708433661609888,0.00023633615637663752,-0.0027766977436840534,-0.0001821566579815397,0.0001554507040858675,0.007594164437878666,OFFBOARD,True,0.0,0.0,5.0,0.0,0.0,5.0,0.949999988079071,APPROVED,OK,False
1784841548.9653897,0.045956116169691086,-0.07224445044994354,-0.014864370226860046,-0.002832012949511409,0.00041766715003177524,-0.002725339261814952,-0.00016186623780897315,0.00014372333002396723,0.007602348658012313,OFFBOARD,True,0.0,0.0,5.0,0.0,0.0,5.0,0.949999988079071,APPROVED,OK,False
1784841549.065393,0.045956116169691086,-0.07224445044994354,-0.014864370226860046,-0.002832012949511409,0.00041766715003177524,-0.002725339261814952,-0.00016186623780897315,0.00014372333002396723,0.007602348658012313,OFFBOARD,True,0.0,0.0,5.0,0.0,0.0,5.0,0.949999988079071,APPROVED,OK,False
1784841549.1653976,0.04586300998926163,-0.07226689904928207,-0.015087231993675232,-0.0027788570150732994,0.00039402753463946283,-0.0027866275049746037,-0.00016920887271800866,0.0001533833425685558,0.00759862187398043,OFFBOARD,True,0.0,0.0,5.0,0.0,0.0,5.0,0.949999988079071,APPROVED,OK,False
1784841549.2653685,0.04565378651022911,-0.07236956059932709,-0.01534433662891388,-0.002780135255306959,0.00041028359555639327,-0.0029539663810282946,-0.0001824597306980723,0.0001543671539130472,0.0075978525804435565,OFFBOARD,True,0.0,0.0,5.0,0.0,0.0,5.0,0.949999988079071,APPROVED,OK,False
1784841549.3654592,0.04565378651022911,-0.07236956059932709,-0.01534433662891388,-0.002780135255306959,0.00041028359555639327,-0.0029539663810282946,-0.0001824597306980723,0.0001543671539130472,0.0075978525804435565,OFFBOARD,True,0.0,0.0,5.0,0.0,0.0,5.0,0.949999988079071,APPROVED,OK,False
1784841549.465626,0.04536336287856102,-0.07242105901241302,-0.015437990427017212,-0.0029179195407778025,0.0005922423442825675,-0.003060820046812296,-0.00018408245819957503,0.00014463084567470138,0.007599837740803872,OFFBOARD,True,0.0,0.0,5.0,0.0,0.0,5.0,0.949999988079071,APPROVED,OK,False
1784841549.5653343,0.04536336287856102,-0.07242105901241302,-0.015437990427017212,-0.0029179195407778025,0.0005922423442825675,-0.003060820046812296,-0.00018408245819957503,0.00014463084567470138,0.007599837740803872,OFFBOARD,True,0.0,0.0,5.0,0.0,0.0,5.0,0.949999988079071,APPROVED,OK,False
1784841549.6656005,0.045220401138067245,-0.0724063515663147,-0.015432357788085938,-0.003031661733984947,0.0005949962069280446,-0.0030384743586182594,-0.00018617773045728547,0.0001495179172821111,0.007602910733905092,OFFBOARD,True,0.0,0.0,5.0,0.0,0.0,5.0,0.949999988079071,APPROVED,OK,False
1784841549.7653732,0.0447959303855896,-0.07230610400438309,-0.015324816107749939,-0.0033093616366386414,0.0006555216386914253,-0.003056819550693035,-0.00017166917965969554,0.00015404405773539024,0.007602959169287129,OFFBOARD,True,0.0,0.0,5.0,0.0,0.0,5.0,0.949999988079071,APPROVED,OK,False
1784841549.8653953,0.0447959303855896,-0.07230610400438309,-0.015324816107749939,-0.0033093616366386414,0.0006555216386914253,-0.003056819550693035,-0.00017166917965969554,0.00015404405773539024,0.007602959169287129,OFFBOARD,True,0.0,0.0,5.0,0.0,0.0,5.0,0.949999988079071,APPROVED,OK,False
1784841549.965414,0.04430742189288139,-0.07212314754724503,-0.015080690383911133,-0.003498002653941512,0.000845890084747225,-0.0029126685112714767,-0.0001619581778338517,0.0001824301881357306,0.007598385813933544,OFFBOARD,True,0.0,0.0,5.0,0.0,0.0,5.0,0.949999988079071,APPROVED,OK,False
1784841550.065305,0.04398638382554054,-0.07199138402938843,-0.014886870980262756,-0.003799332771450281,0.0010623448761180043,-0.002771020634099841,-0.0001641699092710571,0.00019305113648302363,0.00759662418155522,OFFBOARD,True,0.0,0.0,5.0,0.0,0.0,5.0,0.949999988079071,APPROVED,OK,False
1784841550.1656156,0.04398638382554054,-0.07199138402938843,-0.014886870980262756,-0.003799332771450281,0.0010623448761180043,-0.002771020634099841,-0.0001641699092710571,0.00019305113648302363,0.00759662418155522,OFFBOARD,True,0.0,0.0,5.0,0.0,0.0,5.0,0.949999988079071,APPROVED,OK,False
1784841550.265416,0.04336532577872276,-0.07175759226083755,-0.014449089765548706,-0.004095961339771748,0.0013372392859309912,-0.002481169765815139,-0.00014136611240457637,0.00022241741136558532,0.007603546948698641,OFFBOARD,True,0.0,0.0,5.0,0.0,0.0,5.0,0.949999988079071,APPROVED,OK,False
1784841550.3654587,0.04336532577872276,-0.07175759226083755,-0.014449089765548706,-0.004095961339771748,0.0013372392859309912,-0.002481169765815139,-0.00014136611240457637,0.00022241741136558532,0.007603546948698641,OFFBOARD,True,0.0,0.0,5.0,0.0,0.0,5.0,0.949999988079071,APPROVED,OK,False
1784841550.4653962,0.042690642178058624,-0.07150508463382721,-0.013919293880462646,-0.004578791093081236,0.0015371061163023114,-0.0022816541604697704,-0.00013518272744716993,0.00023913641280708068,0.007622941867590186,OFFBOARD,True,0.0,0.0,5.0,0.0,0.0,5.0,0.949999988079071,APPROVED,OK,False
1784841550.5652347,0.04242138937115669,-0.07139288634061813,-0.013663426041603088,-0.004689477849751711,0.0016120062209665775,-0.002097618067637086,-0.0001263015042563888,0.0002449545742760412,0.0076288703847139285,OFFBOARD,True,0.0,0.0,5.0,0.0,0.0,5.0,0.949999988079071,APPROVED,OK,False
1784841550.6653564,0.04242138937115669,-0.07139288634061813,-0.013663426041603088,-0.004689477849751711,0.0016120062209665775,-0.002097618067637086,-0.0001263015042563888,0.0002449545742760412,0.0076288703847139285,OFFBOARD,True,0.0,0.0,5.0,0.0,0.0,5.0,0.949999988079071,APPROVED,OK,False
1784841550.765392,0.04175741598010063,-0.07110153883695602,-0.012959793210029602,-0.005177624057978392,0.001847152365371585,-0.0018521032761782408,-0.00010050399195853431,0.0002556193531388667,0.007622254562630824,OFFBOARD,True,0.0,0.0,5.0,0.0,0.0,5.0,0.949999988079071,APPROVED,OK,False
1784841550.865389,0.04175741598010063,-0.07110153883695602,-0.012959793210029602,-0.005177624057978392,0.001847152365371585,-0.0018521032761782408,-0.00010050399195853431,0.0002556193531388667,0.007622254562630824,OFFBOARD,True,0.0,0.0,5.0,0.0,0.0,5.0,0.949999988079071,APPROVED,OK,False
1784841550.9653854,0.04114549234509468,-0.07083895057439804,-0.012143462896347046,-0.0056743440218269825,0.0020620664581656456,-0.001666358788497746,-0.00011806725982601391,0.0002701410008854525,0.00760513592036355,OFFBOARD,True,0.0,0.0,5.0,0.0,0.0,5.0,0.949999988079071,APPROVED,OK,False
1784841551.06543,0.04114549234509468,-0.07083895057439804,-0.012143462896347046,-0.0056743440218269825,0.0020620664581656456,-0.001666358788497746,-0.00011806725982601391,0.0002701410008854525,0.00760513592036355,OFFBOARD,True,0.0,0.0,5.0,0.0,0.0,5.0,0.949999988079071,APPROVED,OK,False
1784841551.1656318,0.04082617908716202,-0.07072073221206665,-0.011581048369407654,-0.005850485526025295,0.0020304895006120205,-0.0015914819668978453,-0.00011966332866937042,0.00027503635266164494,0.007603794787191705,OFFBOARD,True,0.0,0.0,5.0,0.0,0.0,5.0,0.949999988079071,APPROVED,OK,False
1784841551.2653308,0.040337301790714264,-0.07060189545154572,-0.01060551404953003,-0.0062832096591591835,0.0020115270745009184,-0.001346609671600163,-0.0001223551862238009,0.0002894629764746682,0.007596809696794219,OFFBOARD,True,0.0,0.0,5.0,0.0,0.0,5.0,0.949999988079071,APPROVED,OK,False
1784841551.365632,0.040337301790714264,-0.07060189545154572,-0.01060551404953003,-0.0062832096591591835,0.0020115270745009184,-0.001346609671600163,-0.0001223551862238009,0.0002894629764746682,0.007596809696794219,OFFBOARD,True,0.0,0.0,5.0,0.0,0.0,5.0,0.949999988079071,APPROVED,OK,False
1784841551.4653895,0.04014531522989273,-0.07056713849306107,-0.01022559404373169,-0.006461963057518005,0.0019912924617528915,-0.0012834006920456886,-0.00012358534680531556,0.0002842425639831975,0.007601680643337375,OFFBOARD,True,0.0,0.0,5.0,0.0,0.0,5.0,0.949999988079071,APPROVED,OK,False
1784841551.5654886,0.039840757846832275,-0.07058881223201752,-0.009648755192756653,-0.006662172265350819,0.001883195131085813,-0.0011528631439432502,-0.00013440353217493206,0.0002848561018578945,0.00759766513125716,OFFBOARD,True,0.0,0.0,5.0,0.0,0.0,5.0,0.949999988079071,APPROVED,OK,False
1784841551.6653914,0.03963806480169296,-0.07062751799821854,-0.00927591323852539,-0.0067582326009869576,0.001812452799640596,-0.0009476047125644982,-0.0001283004442647193,0.00028997468004323394,0.007600439632601665,OFFBOARD,True,0.0,0.0,5.0,0.0,0.0,5.0,0.949999988079071,APPROVED,OK,False
1784841551.76533,0.03914235904812813,-0.07082600146532059,-0.008375987410545349,-0.0072455741465091705,0.0015749090816825628,-0.0006445124163292348,-0.00012682630628393934,0.00029562050325172216,0.007601457144535683,OFFBOARD,True,0.0,0.0,5.0,0.0,0.0,5.0,0.949999988079071,APPROVED,OK,False
1784841551.8653889,0.03914235904812813,-0.07082600146532059,-0.008375987410545349,-0.0072455741465091705,0.0015749090816825628,-0.0006445124163292348,-0.00012682630628393934,0.00029562050325172216,0.007601457144535683,OFFBOARD,True,0.0,0.0,5.0,0.0,0.0,5.0,0.949999988079071,APPROVED,OK,False
1784841551.965606,0.03886130452156067,-0.07099686563014984,-0.007867202162742615,-0.007447092793881893,0.001514762407168746,-0.0006420497666113079,-0.00014141912836967453,0.00031088508467851393,0.007590457476613935,OFFBOARD,True,0.0,0.0,5.0,0.0,0.0,5.0,0.949999988079071,APPROVED,OK,False
1784841552.0654426,0.038419097661972046,-0.07138091325759888,-0.007004901766777039,-0.0076769995503127575,0.0011920012766495347,-0.0005759007181040943,-0.0001604304206870221,0.0003056151083281832,0.007585648907104879,OFFBOARD,True,0.0,0.0,5.0,0.0,0.0,5.0,0.949999988079071,APPROVED,OK,False
1784841552.1653183,0.038419097661972046,-0.07138091325759888,-0.007004901766777039,-0.0076769995503127575,0.0011920012766495347,-0.0005759007181040943,-0.0001604304206870221,0.0003056151083281832,0.007585648907104879,OFFBOARD,True,0.0,0.0,5.0,0.0,0.0,5.0,0.949999988079071,APPROVED,OK,False
1784841552.2653801,0.038004714995622635,-0.07185396552085876,-0.006130337715148926,-0.007719994522631168,0.0008103612344712019,-0.0006004580063745379,-0.00016236473460888795,0.0003150345635090937,0.007577919660673057,OFFBOARD,True,0.0,0.0,5.0,0.0,0.0,5.0,0.949999988079071,APPROVED,OK,False
1784841552.3653822,0.038004714995622635,-0.07185396552085876,-0.006130337715148926,-0.007719994522631168,0.0008103612344712019,-0.0006004580063745379,-0.00016236473460888795,0.0003150345635090937,0.007577919660673057,OFFBOARD,True,0.0,0.0,5.0,0.0,0.0,5.0,0.949999988079071,APPROVED,OK,False
1784841552.4653766,0.037844397127628326,-0.07206224650144577,-0.005766481161117554,-0.007781554013490677,0.0006374489748850465,-0.000434506859164685,-0.0001655003524425572,0.0003159224632128526,0.0075772695809439485,OFFBOARD,True,0.0,0.0,5.0,0.0,0.0,5.0,0.949999988079071,APPROVED,OK,False
1784841552.5653572,0.0374184250831604,-0.0726388618350029,-0.0047958046197891235,-0.008120937272906303,0.0002696355804800987,-0.00020216549455653876,-0.00016914370039600442,0.0003016942692121172,0.007577755246343105,OFFBOARD,True,0.0,0.0,5.0,0.0,0.0,5.0,0.949999988079071,APPROVED,OK,False
1784841552.665385,0.0374184250831604,-0.0726388618350029,-0.0047958046197891235,-0.008120937272906303,0.0002696355804800987,-0.00020216549455653876,-0.00016914370039600442,0.0003016942692121172,0.007577755246343105,OFFBOARD,True,0.0,0.0,5.0,0.0,0.0,5.0,0.949999988079071,APPROVED,OK,False
1784841552.7656343,0.0369703508913517,-0.0732937678694725,-0.0038250982761383057,-0.008315273560583591,-0.0002934957155957818,-7.675909728277475e-06,-0.00019802522373207857,0.00031296921007891224,0.007548661784532559,OFFBOARD,True,0.0,0.0,5.0,0.0,0.0,5.0,0.949999988079071,APPROVED,OK,False
1784841552.8653228,0.0369703508913517,-0.0732937678694725,-0.0038250982761383057,-0.008315273560583591,-0.0002934957155957818,-7.675909728277475e-06,-0.00020574767859752935,0.00031760489752830274,0.007539163897203903,OFFBOARD,True,0.0,0.0,5.0,0.0,0.0,5.0,0.949999988079071,APPROVED,OK,False
1784841552.9653838,0.03670959547162056,-0.07374140620231628,-0.0032429248094558716,-0.008474240079522133,-0.0006664740503765643,6.312144978437573e-05,-0.00020574767859752935,0.00031760489752830274,0.007539163897203903,OFFBOARD,True,0.0,0.0,5.0,0.0,0.0,5.0,0.949999988079071,APPROVED,OK,False
1784841553.0654137,0.036295175552368164,-0.07454478740692139,-0.00213487446308136,-0.00862827431410551,-0.0011791452998295426,0.00018718020874075592,-0.000226819684335608,0.0003374225698644045,0.0075266410267956245,OFFBOARD,True,0.0,0.0,5.0,0.0,0.0,5.0,0.949999988079071,APPROVED,OK,False
1784841553.165401,0.036295175552368164,-0.07454478740692139,-0.00213487446308136,-0.00862827431410551,-0.0011791452998295426,0.00018718020874075592,-0.000226819684335608,0.0003374225698644045,0.0075266410267956245,OFFBOARD,True,0.0,0.0,5.0,0.0,0.0,5.0,0.949999988079071,APPROVED,OK,False
1784841553.2653995,0.035924579948186874,-0.07535025477409363,-0.0009168535470962524,-0.008665919303894043,-0.00178925518412143,0.0005915971705690026,-0.0002364154645070356,0.00032573228812299363,0.007519912001255694,OFFBOARD,True,0.0,0.0,5.0,0.0,0.0,5.0,0.949999988079071,APPROVED,OK,False
1784841553.3652737,0.03580347076058388,-0.07567448914051056,-0.0004064589738845825,-0.00872797705233097,-0.0020018366631120443,0.0006713249022141099,-0.00023920416425654236,0.00032045538503595877,0.007530623898852639,OFFBOARD,True,0.0,0.0,5.0,0.0,0.0,5.0,0.949999988079071,APPROVED,OK,False
1784841553.4653919,0.03580347076058388,-0.07567448914051056,-0.0004064589738845825,-0.00872797705233097,-0.0020018366631120443,0.0006713249022141099,-0.00023920416425654236,0.00032045538503595877,0.007530623898852639,OFFBOARD,True,0.0,0.0,5.0,0.0,0.0,5.0,0.949999988079071,APPROVED,OK,False
1784841553.5654216,0.03558941185474396,-0.07649710774421692,0.0009122192859649658,-0.008704626932740211,-0.0024126016069203615,0.0012868928024545312,-0.0002384012902055475,0.0003047839028916268,0.007516839897061251,OFFBOARD,True,0.0,0.0,5.0,0.0,0.0,5.0,0.949999988079071,APPROVED,OK,False
1784841553.6653674,0.035490091890096664,-0.07697085291147232,0.001754850149154663,-0.00983651913702488,-0.0012421858264133334,0.004376999568194151,-1.8579346321610634e-05,0.0003589330667400738,0.00743505132108266,OFFBOARD,True,0.0,0.0,5.0,0.0,0.0,5.0,0.949999988079071,APPROVED,OK,False
1784841553.7654052,0.035418249666690826,-0.0772671177983284,0.002407744526863098,-0.009994612075388432,-0.0012227704282850027,0.01015020627528429,0.0007137555237820937,0.0006368667084973724,0.007320847184760159,OFFBOARD,True,0.0,0.0,5.0,0.0,0.0,5.0,0.949999988079071,APPROVED,OK,False
1784841553.8653955,0.03533231094479561,-0.07770036160945892,0.0036438554525375366,-0.01007190439850092,-0.0010476339375600219,0.024713777005672455,0.0019874138995217123,0.0011938389432606844,0.007167048162050421,OFFBOARD,True,0.0,0.0,5.0,0.0,0.0,5.0,0.949999988079071,APPROVED,OK,False
1784841553.9654746,0.03533231094479561,-0.07770036160945892,0.0036438554525375366,-0.01007190439850092,-0.0010476339375600219,0.024713777005672455,0.0019874138995217123,0.0011938389432606844,0.007167048162050421,OFFBOARD,True,0.0,0.0,5.0,0.0,0.0,5.0,0.949999988079071,APPROVED,OK,False
1784841554.065403,0.0352022759616375,-0.07835490256547928,0.006705582141876221,-0.010478190146386623,4.13416200899519e-05,0.06277914345264435,0.0051202013339862245,0.0023590343532798146,0.006760420269166208,OFFBOARD,True,0.0,0.0,5.0,0.0,0.0,5.0,0.949999988079071,APPROVED,OK,False
1784841554.165228,0.03511243686079979,-0.07888446003198624,0.01166592538356781,-0.011590070091187954,0.0026960016693919897,0.11537356674671173,0.008367884464283415,0.0034241121582965143,0.006235094858023426,OFFBOARD,True,0.0,0.0,5.0,0.0,0.0,5.0,0.949999988079071,APPROVED,OK,False
1784841554.2653787,0.03511243686079979,-0.07888446003198624,0.01166592538356781,-0.011590070091187954,0.0026960016693919897,0.11537356674671173,0.008367884464283415,0.0034241121582965143,0.006235094858023426,OFFBOARD,True,0.0,0.0,5.0,0.0,0.0,5.0,0.949999988079071,APPROVED,OK,False
1784841554.3653824,0.035101503133773804,-0.07905123382806778,0.014322757720947266,-0.012151387520134449,0.00417393958196044,0.13969939947128296,0.009939038924226862,0.00389810870411249,0.005902168288244942,OFFBOARD,True,0.0,0.0,5.0,0.0,0.0,5.0,0.949999988079071,APPROVED,OK,False
1784841554.465348,0.035096388310194016,-0.07924214750528336,0.019101575016975403,-0.013048066757619381,0.006827614735811949,0.1794285774230957,0.011399096357598558,0.004324515790744144,0.005545391416133697,OFFBOARD,True,0.0,0.0,5.0,0.0,0.0,5.0,0.949999988079071,APPROVED,OK,False
1784841554.5653605,0.03512568026781082,-0.0793234333395958,0.0229196697473526,-0.013725358061492443,0.008883945643901825,0.20767457783222198,0.01272783305651375,0.004664930670542098,0.0051774711589602,OFFBOARD,True,0.0,0.0,5.0,0.0,0.0,5.0,0.949999988079071,APPROVED,OK,False
1784841554.6653879,0.03515326604247093,-0.07935905456542969,0.029513463377952576,-0.014781343750655651,0.01239090971648693,0.25244566798210144,0.013907721214128876,0.004971487903119385,0.004771651009008998,OFFBOARD,True,0.0,0.0,5.0,0.0,0.0,5.0,0.949999988079071,APPROVED,OK,False
1784841554.765397,0.03515326604247093,-0.07935905456542969,0.029513463377952576,-0.014781343750655651,0.01239090971648693,0.25244566798210144,0.013907721214128876,0.004971487903119385,0.004771651009008998,OFFBOARD,True,0.0,0.0,5.0,0.0,0.0,5.0,0.949999988079071,APPROVED,OK,False
1784841554.8654084,0.03522815927863121,-0.07915546000003815,0.04313473403453827,-0.016783669590950012,0.019054949283599854,0.33213579654693604,0.015791320147194483,0.005410942110127498,0.0038952290118796852,OFFBOARD,True,0.0,0.0,5.0,0.0,0.0,5.0,0.949999988079071,APPROVED,OK,False
1784841554.9654646,0.03522815927863121,-0.07915546000003815,0.04313473403453827,-0.016783669590950012,0.019054949283599854,0.33213579654693604,0.015791320147194483,0.005410942110127498,0.0038952290118796852,OFFBOARD,True,0.0,0.0,5.0,0.0,0.0,5.0,0.949999988079071,APPROVED,OK,False
1784841555.0653892,0.035303451120853424,-0.07855882495641708,0.060202404856681824,-0.01866546832025051,0.026644736528396606,0.41709718108177185,0.017009358543891615,0.005645311620760891,0.0029807877635291903,OFFBOARD,True,0.0,0.0,5.0,0.0,0.0,5.0,0.949999988079071,APPROVED,OK,False
1784841555.1653404,0.035337891429662704,-0.07818005979061127,0.06805948913097382,-0.019524402916431427,0.02992754988372326,0.452199786901474,0.017368722111905148,0.005688277014961438,0.002518504493104622,OFFBOARD,True,0.0,0.0,5.0,0.0,0.0,5.0,0.949999988079071,APPROVED,OK,False
1784841555.2654073,0.035337891429662704,-0.07818005979061127,0.06805948913097382,-0.019524402916431427,0.02992754988372326,0.452199786901474,0.017368722111905148,0.005688277014961438,0.002518504493104622,OFFBOARD,True,0.0,0.0,5.0,0.0,0.0,5.0,0.949999988079071,APPROVED,OK,False
1784841555.3653822,0.03539196774363518,-0.07689309120178223,0.0902857631444931,-0.02160600572824478,0.03836562857031822,0.5423427820205688,0.01764341099480662,0.005678774111588135,0.001588592860930035,OFFBOARD,True,0.0,0.0,5.0,0.0,0.0,5.0,0.949999988079071,APPROVED,OK,False
1784841555.465618,0.03539196774363518,-0.07689309120178223,0.0902857631444931,-0.02160600572824478,0.03836562857031822,0.5423427820205688,0.01764341099480662,0.005678774111588135,0.001588592860930035,OFFBOARD,True,0.0,0.0,5.0,0.0,0.0,5.0,0.949999988079071,APPROVED,OK,False
1784841555.5654364,0.035392556339502335,-0.07510979473590851,0.11650960147380829,-0.023651467636227608,0.046899158507585526,0.6350926160812378,0.017384939114874168,0.005535189387455132,0.0006683854596314763,OFFBOARD,True,0.0,0.0,5.0,0.0,0.0,5.0,0.949999988079071,APPROVED,OK,False
1784841555.6656435,0.035392556339502335,-0.07510979473590851,0.11650960147380829,-0.023651467636227608,0.046899158507585526,0.6350926160812378,0.017384939114874168,0.005535189387455132,0.0006683854596314763,OFFBOARD,True,0.0,0.0,5.0,0.0,0.0,5.0,0.949999988079071,APPROVED,OK,False
1784841555.765658,0.035356368869543076,-0.07384015619754791,0.13420598208904266,-0.02485400065779686,0.0519804023206234,0.6917929649353027,0.017074514354731805,0.005441077358289067,0.00020186143859557174,OFFBOARD,True,0.0,0.0,5.0,0.0,0.0,5.0,0.949999988079071,APPROVED,OK,False
1784841555.8654497,0.035356368869543076,-0.07384015619754791,0.13420598208904266,-0.02485400065779686,0.0519804023206234,0.6917929649353027,0.017074514354731805,0.005441077358289067,0.00020186143859557174,OFFBOARD,True,0.0,0.0,5.0,0.0,0.0,5.0,0.949999988079071,APPROVED,OK,False
1784841555.9653492,0.03523390740156174,-0.0714338943362236,0.16703464090824127,-0.026837285608053207,0.06016087159514427,0.7873128652572632,0.016136451454100142,0.0051851444390655374,-0.000647329392076817,OFFBOARD,True,0.0,0.0,5.0,0.0,0.0,5.0,0.949999988079071,APPROVED,OK,False
1784841556.0653567,0.035150252282619476,-0.07037999480962753,0.18126393854618073,-0.02757074125111103,0.06334782391786575,0.8258378505706787,0.015546693210151537,0.005031331714950796,-0.0010608214705333323,OFFBOARD,True,0.0,0.0,5.0,0.0,0.0,5.0,0.949999988079071,APPROVED,OK,False
1784841556.165442,0.03502554073929787,-0.06871119886636734,0.20399971306324005,-0.0284949392080307,0.06796091794967651,0.8839405179023743,0.014891990731068575,0.004865624582466778,-0.0014443639871913206,OFFBOARD,True,0.0,0.0,5.0,0.0,0.0,5.0,0.949999988079071,APPROVED,OK,False
1784841556.265374,0.03493531793355942,-0.06753703951835632,0.21997661888599396,-0.029155563563108444,0.0709574744105339,0.922778308391571,0.014155565835289626,0.004694437621105735,-0.0018144714755754102,OFFBOARD,True,0.0,0.0,5.0,0.0,0.0,5.0,0.949999988079071,APPROVED,OK,False
1784841556.3654249,0.03493531793355942,-0.06753703951835632,0.21997661888599396,-0.029155563563108444,0.0709574744105339,0.922778308391571,0.014155565835289626,0.004694437621105735,-0.0018144714755754102,OFFBOARD,True,0.0,0.0,5.0,0.0,0.0,5.0,0.949999988079071,APPROVED,OK,False
1784841556.4653757,0.03470095247030258,-0.0644276812672615,0.26290714740753174,-0.030613545328378677,0.0775957778096199,1.0201913118362427,0.012551832382978098,0.004315731939913188,-0.0025027374098890087,OFFBOARD,True,0.0,0.0,5.0,0.0,0.0,5.0,0.949999988079071,APPROVED,OK,False
1784841556.5678775,0.03470095247030258,-0.0644276812672615,0.26290714740753174,-0.030613545328378677,0.0775957778096199,1.0201913118362427,0.012551832382978098,0.004315731939913188,-0.0025027374098890087,OFFBOARD,True,0.0,0.0,5.0,0.0,0.0,5.0,0.949999988079071,APPROVED,OK,False
1784841556.6656053,0.034441813826560974,-0.06109781935811043,0.31002897024154663,-0.031843800097703934,0.08338412642478943,1.1180592775344849,0.010818005770839197,0.003929693586996803,-0.0030877505127866888,OFFBOARD,True,0.0,0.0,5.0,0.0,0.0,5.0,0.949999988079071,APPROVED,OK,False
1784841556.7658012,0.034441813826560974,-0.06109781935811043,0.31002897024154663,-0.031843800097703934,0.08338412642478943,1.1180592775344849,0.010818005770839197,0.003929693586996803,-0.0030877505127866888,OFFBOARD,True,0.0,0.0,5.0,0.0,0.0,5.0,0.949999988079071,APPROVED,OK,False
1784841556.8655162,0.03426121547818184,-0.05898552015423775,0.3402102589607239,-0.03254042938351631,0.08633606135845184,1.176689624786377,0.009906210404686352,0.0037417920542369195,-0.003360417485413291,OFFBOARD,True,0.0,0.0,5.0,0.0,0.0,5.0,0.949999988079071,APPROVED,OK,False
1784841556.9653056,0.03413869068026543,-0.057530175894498825,0.3611745238304138,-0.03290010988712311,0.08825237303972244,1.2157912254333496,0.008992909476325316,0.003550841251408379,-0.0036037019630998975,OFFBOARD,True,0.0,0.0,5.0,0.0,0.0,5.0,0.949999988079071,APPROVED,OK,False
1784841557.0653858,0.03396451100707054,-0.055260710418224335,0.3938888907432556,-0.03332708403468132,0.09094788134098053,1.2743701934814453,0.008080587065251122,0.0033564139312773924,-0.0038233479725692282,OFFBOARD,True,0.0,0.0,5.0,0.0,0.0,5.0,0.949999988079071,APPROVED,OK,False
1784841557.1653593,0.03362125903367996,-0.05131448432803154,0.45175671577453613,-0.034017764031887054,0.09446167200803757,1.3720924854278564,0.006251657379723028,0.002978359561437241,-0.004215163622818581,OFFBOARD,True,0.0,0.0,5.0,0.0,0.0,5.0,0.949999988079071,APPROVED,OK,False
1784841557.265381,0.03362125903367996,-0.05131448432803154,0.45175671577453613,-0.034017764031887054,0.09446167200803757,1.3720924854278564,0.006251657379723028,0.002978359561437241,-0.004215163622818581,OFFBOARD,True,0.0,0.0,5.0,0.0,0.0,5.0,0.949999988079071,APPROVED,OK,False
1784841557.365372,0.033448927104473114,-0.04969026893377304,0.4760880470275879,-0.03423438221216202,0.0955851599574089,1.4109739065170288,0.005358823156335045,0.002797226344047992,-0.004360675958108122,OFFBOARD,True,0.0,0.0,5.0,0.0,0.0,5.0,0.949999988079071,APPROVED,OK,False
1784841557.4654024,0.033448927104473114,-0.04969026893377304,0.4760880470275879,-0.03423438221216202,0.0955851599574089,1.4109739065170288,0.005358823156335045,0.002797226344047992,-0.004360675958108122,OFFBOARD,True,0.0,0.0,5.0,0.0,0.0,5.0,0.949999988079071,APPROVED,OK,False
1784841557.5653806,0.032921865582466125,-0.04552653059363365,0.5397952795028687,-0.03478536009788513,0.0979897603392601,1.5081936120986938,0.0036438685637848155,0.0024941619733891873,-0.004607554891239941,OFFBOARD,True,0.0,0.0,5.0,0.0,0.0,5.0,0.949999988079071,APPROVED,OK,False
1784841557.6653824,0.032921865582466125,-0.04552653059363365,0.5397952795028687,-0.03478536009788513,0.0979897603392601,1.5081936120986938,0.0036438685637848155,0.0024941619733891873,-0.004607554891239941,OFFBOARD,True,0.0,0.0,5.0,0.0,0.0,5.0,0.949999988079071,APPROVED,OK,False
